[
    
    {
        "lat": 57.1634,
        "lon": 13.40503056,
        "wikidata": "Q10672533",
        "label": "Smålandsstenars kyrka"
    }
    
    ,{
        "lat": 58.284,
        "lon": 13.095,
        "wikidata": "Q15621882",
        "label": "Fyrunga kyrka"
    }
    
    ,{
        "lat": 58.54861111,
        "lon": 13.79555556,
        "wikidata": "Q10572726",
        "label": "Låstads kyrka"
    }
    
    ,{
        "lat": 56.6964,
        "lon": 12.8732,
        "wikidata": "Q8079099",
        "label": "Övraby kyrkoruin"
    }
    
    ,{
        "lat": 57.98980556,
        "lon": 15.62916667,
        "wikidata": "Q10545819",
        "label": "Kisa kyrka"
    }
    
    ,{
        "lat": 57.376599,
        "lon": 14.594967,
        "wikidata": "Q1742929",
        "label": "Norra Ljunga kyrka"
    }
    
    ,{
        "lat": 57.11136944,
        "lon": 16.98633889,
        "wikidata": "Q1795326",
        "label": "Källa ödekyrka"
    }
    
    ,{
        "lat": 59.23275,
        "lon": 14.43179167,
        "wikidata": "Q10467697",
        "label": "Degerfors kyrka"
    }
    
    ,{
        "lat": 58.07180833,
        "lon": 11.819525,
        "wikidata": "Q10679331",
        "label": "Stenungsunds kapell"
    }
    
    ,{
        "lat": 57.57748,
        "lon": 12.1093,
        "wikidata": "Q10562603",
        "label": "Lindome kyrka"
    }
    
    ,{
        "lat": 59.89444444,
        "lon": 18.49333333,
        "wikidata": "Q10479971",
        "label": "Edsbro kyrka"
    }
    
    ,{
        "lat": 62.92806111,
        "lon": 18.2886,
        "wikidata": "Q10602054",
        "label": "Nordingrå kyrka"
    }
    
    ,{
        "lat": 58.1029,
        "lon": 13.9669,
        "wikidata": "Q10713824",
        "label": "Velinga kyrka"
    }
    
    ,{
        "lat": 57.63686667,
        "lon": 18.29541944,
        "wikidata": "Q10659416",
        "label": "S:t Mikaels kyrka"
    }
    
    ,{
        "lat": 55.90666667,
        "lon": 13.09472222,
        "wikidata": "Q10494535",
        "label": "Felestads kyrka"
    }
    
    ,{
        "lat": 57.50536389,
        "lon": 11.94061944,
        "wikidata": "Q10688141",
        "label": "Särö kyrka"
    }
    
    ,{
        "lat": 56.91964722,
        "lon": 12.48664444,
        "wikidata": "Q10677265",
        "label": "Stafsinge kyrka"
    }
    
    ,{
        "lat": 59.23970556,
        "lon": 15.16604722,
        "wikidata": "Q10401442",
        "label": "Adolfsbergs kyrka"
    }
    
    ,{
        "lat": 59.233888888,
        "lon": 18.101944444,
        "wikidata": "Q10494173",
        "label": "Farstastrandkyrkan"
    }
    
    ,{
        "lat": 57.890666666,
        "lon": 12.059222222,
        "wikidata": "Q10605530",
        "label": "Nödinge kyrka"
    }
    
    ,{
        "lat": 59.04766667,
        "lon": 16.59497222,
        "wikidata": "Q10496655",
        "label": "Flens kyrka"
    }
    
    ,{
        "lat": 63.92051389,
        "lon": 16.34038889,
        "wikidata": "Q10432005",
        "label": "Bodums kyrka"
    }
    
    ,{
        "lat": 59.339722222,
        "lon": 17.941111111,
        "wikidata": "Q10551422",
        "label": "Kyrkan vid Brommaplan"
    }
    
    ,{
        "lat": 55.70836944,
        "lon": 13.18138333,
        "wikidata": "Q10717954",
        "label": "Västerkyrkan"
    }
    
    ,{
        "lat": 57.10828333,
        "lon": 13.03360278,
        "wikidata": "Q10494516",
        "label": "Fegens kapell"
    }
    
    ,{
        "lat": 55.55916667,
        "lon": 13.88444444,
        "wikidata": "Q10649197",
        "label": "Ramsåsa kyrka"
    }
    
    ,{
        "lat": 58.9303,
        "lon": 12.2955,
        "wikidata": "Q18330950",
        "label": "Dals-Långeds kyrka"
    }
    
    ,{
        "lat": 63.19181667,
        "lon": 19.01766667,
        "wikidata": "Q10670084",
        "label": "Skeppsmalns kapell"
    }
    
    ,{
        "lat": 58.86694444,
        "lon": 17.25805556,
        "wikidata": "Q10707859",
        "label": "Tystberga kyrka"
    }
    
    ,{
        "lat": 62.92191667,
        "lon": 14.50444444,
        "wikidata": "Q10515490",
        "label": "Hackås kyrka"
    }
    
    ,{
        "lat": 59.61722222,
        "lon": 16.22972222,
        "wikidata": "Q10661394",
        "label": "Sankt Lars kyrka"
    }
    
    ,{
        "lat": 58.36222222,
        "lon": 12.40277778,
        "wikidata": "Q10713032",
        "label": "Vargöns kyrka"
    }
    
    ,{
        "lat": 59.30715556,
        "lon": 18.14309444,
        "wikidata": "Q10593925",
        "label": "Nacka kyrka"
    }
    
    ,{
        "lat": 58.98694722,
        "lon": 12.254525,
        "wikidata": "Q10429648",
        "label": "Billingsfors kyrka"
    }
    
    ,{
        "lat": 62.17209722,
        "lon": 14.92883333,
        "wikidata": "Q10723842",
        "label": "Ytterhogdals kyrka"
    }
    
    ,{
        "lat": 59.68345,
        "lon": 18.60848889,
        "wikidata": "Q10571911",
        "label": "Länna kyrka"
    }
    
    ,{
        "lat": 56.23833333,
        "lon": 16.44888889,
        "wikidata": "Q10726793",
        "label": "Ås kyrka"
    }
    
    ,{
        "lat": 62.855,
        "lon": 12.77402778,
        "wikidata": "Q10568343",
        "label": "Ljungdalens kapell"
    }
    
    ,{
        "lat": 57.7361,
        "lon": 18.6147,
        "wikidata": "Q1742951",
        "label": "Tingstäde kyrka"
    }
    
    ,{
        "lat": 56.96,
        "lon": 14.89955556,
        "wikidata": "Q10512530",
        "label": "Gårdsby kyrka"
    }
    
    ,{
        "lat": 59.50930556,
        "lon": 17.56553889,
        "wikidata": "Q10572719",
        "label": "Låssa kyrka"
    }
    
    ,{
        "lat": 60.03217,
        "lon": 13.69696,
        "wikidata": "Q3866816",
        "label": "Hagfors kyrka"
    }
    
    ,{
        "lat": 61.02305556,
        "lon": 15.64936111,
        "wikidata": "Q10429721",
        "label": "Bingsjö kyrka"
    }
    
    ,{
        "lat": 61.92666667,
        "lon": 17.22175,
        "wikidata": "Q10518175",
        "label": "Harmångers kyrka"
    }
    
    ,{
        "lat": 58.00080556,
        "lon": 12.44255556,
        "wikidata": "Q10413125",
        "label": "Antens kapell"
    }
    
    ,{
        "lat": 58.44899167,
        "lon": 16.74183333,
        "wikidata": "Q10659075",
        "label": "Rönö kyrka"
    }
    
    ,{
        "lat": 65.8145,
        "lon": 16.752806,
        "wikidata": "Q1524537",
        "label": "Jillesnåle kapell"
    }
    
    ,{
        "lat": 57.97958333,
        "lon": 12.91319444,
        "wikidata": "Q10611864",
        "label": "Ornunga gamla kyrka"
    }
    
    ,{
        "lat": 59.72388889,
        "lon": 17.34583333,
        "wikidata": "Q10505046",
        "label": "Giresta kyrka"
    }
    
    ,{
        "lat": 60.60583333,
        "lon": 16.61611111,
        "wikidata": "Q10613558",
        "label": "Ovansjö kyrka"
    }
    
    ,{
        "lat": 55.73194444,
        "lon": 13.16666667,
        "wikidata": "Q10602530",
        "label": "Norra Nöbbelövs kyrka"
    }
    
    ,{
        "lat": 56.0875,
        "lon": 12.97472222,
        "wikidata": "Q10602617",
        "label": "Norra Vrams kyrka"
    }
    
    ,{
        "lat": 57.744,
        "lon": 11.98086111,
        "wikidata": "Q10424138",
        "label": "Backa kyrka"
    }
    
    ,{
        "lat": 61.36308333,
        "lon": 16.60381944,
        "wikidata": "Q10650927",
        "label": "Rengsjö kyrka"
    }
    
    ,{
        "lat": 58.581903,
        "lon": 13.070905,
        "wikidata": "Q1742948",
        "label": "Strö kyrka"
    }
    
    ,{
        "lat": 56.89904167,
        "lon": 14.80107222,
        "wikidata": "Q10577242",
        "label": "Mariakyrkan"
    }
    
    ,{
        "lat": 58.0876,
        "lon": 13.8637,
        "wikidata": "Q10718491",
        "label": "Vättaks kyrka"
    }
    
    ,{
        "lat": 65.05791667,
        "lon": 20.04101667,
        "wikidata": "Q10661417",
        "label": "Sankt Mikaels kyrka"
    }
    
    ,{
        "lat": 59.4885,
        "lon": 17.32275,
        "wikidata": "Q10700425",
        "label": "Torsvi kyrka"
    }
    
    ,{
        "lat": 60.5922,
        "lon": 15.7608,
        "wikidata": "Q5908103",
        "label": "Hosjö kyrka"
    }
    
    ,{
        "lat": 59.30947222,
        "lon": 12.31044444,
        "wikidata": "Q10667819",
        "label": "Silleruds kyrka"
    }
    
    ,{
        "lat": 55.43583298,
        "lon": 14.03583336,
        "wikidata": "Q10535473",
        "label": "Ingelstorps kyrka"
    }
    
    ,{
        "lat": 59.25138889,
        "lon": 18.12277778,
        "wikidata": "Q10681106",
        "label": "Stora Sköndals kyrka"
    }
    
    ,{
        "lat": 59.62135278,
        "lon": 16.58983333,
        "wikidata": "Q10699467",
        "label": "Tomaskyrkan"
    }
    
    ,{
        "lat": 56.51220833,
        "lon": 13.04001389,
        "wikidata": "Q10661334",
        "label": "Sankt Clemens kyrka"
    }
    
    ,{
        "lat": 56.12265,
        "lon": 12.8956,
        "wikidata": "Q18334982",
        "label": "Västra Broby kyrka"
    }
    
    ,{
        "lat": 56.87819,
        "lon": 16.71898,
        "wikidata": "Q1576764",
        "label": "Köpings kyrka"
    }
    
    ,{
        "lat": 59.31794167,
        "lon": 15.139825,
        "wikidata": "Q10480592",
        "label": "Ekers kyrka"
    }
    
    ,{
        "lat": 58.96861111,
        "lon": 16.11277778,
        "wikidata": "Q10728464",
        "label": "Östra Vingåkers kyrka"
    }
    
    ,{
        "lat": 59.05841667,
        "lon": 17.30806667,
        "wikidata": "Q11860132",
        "label": "Frustuna kyrka"
    }
    
    ,{
        "lat": 57.62688889,
        "lon": 13.14477222,
        "wikidata": "Q10524011",
        "label": "Hillareds kyrka"
    }
    
    ,{
        "lat": 59.300055555,
        "lon": 17.402944444,
        "wikidata": "Q10728564",
        "label": "Överenhörna kyrka"
    }
    
    ,{
        "lat": 63.313925,
        "lon": 18.70245,
        "wikidata": "Q10510690",
        "label": "Gullängets kyrka"
    }
    
    ,{
        "lat": 58.26381667,
        "lon": 15.24996667,
        "wikidata": "Q10718258",
        "label": "Västra Hargs kyrka"
    }
    
    ,{
        "lat": 57.54333333,
        "lon": 12.965,
        "wikidata": "Q10656112",
        "label": "Roasjö kyrka"
    }
    
    ,{
        "lat": 59.50208333,
        "lon": 13.3064,
        "wikidata": "Q10661568",
        "label": "Sannerudskyrkan"
    }
    
    ,{
        "lat": 58.02018889,
        "lon": 11.63210278,
        "wikidata": "Q10718716",
        "label": "Vår Frus kyrka"
    }
    
    ,{
        "lat": 59.94055556,
        "lon": 16.0325,
        "wikidata": "Q10718050",
        "label": "Västervåla kyrka"
    }
    
    ,{
        "lat": 57.80115833,
        "lon": 15.14746667,
        "wikidata": "Q10718336",
        "label": "Västra Ryds kyrka"
    }
    
    ,{
        "lat": 60.45194444,
        "lon": 15.47555556,
        "wikidata": "Q10681130",
        "label": "Stora Tuna kyrka"
    }
    
    ,{
        "lat": 62.55830556,
        "lon": 17.38272222,
        "wikidata": "Q10572821",
        "label": "Lögdö kyrka"
    }
    
    ,{
        "lat": 60.88731944,
        "lon": 16.71605556,
        "wikidata": "Q10606604",
        "label": "Ockelbo kyrka"
    }
    
    ,{
        "lat": 59.3106,
        "lon": 14.1166,
        "wikidata": "Q10549263",
        "label": "Kristinehamns kyrka"
    }
    
    ,{
        "lat": 57.44486944,
        "lon": 14.61853333,
        "wikidata": "Q10435621",
        "label": "Bringetofta kyrka"
    }
    
    ,{
        "lat": 55.51777778,
        "lon": 14.30444444,
        "wikidata": "Q10728373",
        "label": "Östra Nöbbelövs kyrka"
    }
    
    ,{
        "lat": 58.152525,
        "lon": 16.326075,
        "wikidata": "Q10517289",
        "label": "Hannäs kyrka"
    }
    
    ,{
        "lat": 58.51083333,
        "lon": 13.40555556,
        "wikidata": "Q1509378",
        "label": "Skälvums kyrka"
    }
    
    ,{
        "lat": 59.87472222,
        "lon": 16.34361111,
        "wikidata": "Q10497172",
        "label": "Fläckebo kyrka"
    }
    
    ,{
        "lat": 59.318625,
        "lon": 14.49547222,
        "wikidata": "Q10688560",
        "label": "Söderkyrkan"
    }
    
    ,{
        "lat": 59.58111111,
        "lon": 17.94888889,
        "wikidata": "Q10671100",
        "label": "Skånela kyrka"
    }
    
    ,{
        "lat": 58.8677,
        "lon": 16.8937,
        "wikidata": "Q10658617",
        "label": "Råby-Rönö kyrka"
    }
    
    ,{
        "lat": 57.79335,
        "lon": 16.19208,
        "wikidata": "Q18287228",
        "label": "Blackstads kyrka"
    }
    
    ,{
        "lat": 58.41666667,
        "lon": 15.52361111,
        "wikidata": "Q10551855",
        "label": "Kärna kyrka"
    }
    
    ,{
        "lat": 58.17659167,
        "lon": 13.54637778,
        "wikidata": "Q10593705",
        "label": "Mössebergs kyrka"
    }
    
    ,{
        "lat": 57.45431944,
        "lon": 13.04727778,
        "wikidata": "Q10651538",
        "label": "Revesjö kyrka"
    }
    
    ,{
        "lat": 57.80277778,
        "lon": 14.115,
        "wikidata": "Q10541979",
        "label": "Järstorps kyrka"
    }
    
    ,{
        "lat": 57.12208333,
        "lon": 13.24055556,
        "wikidata": "Q10688903",
        "label": "Södra Hestra kyrka"
    }
    
    ,{
        "lat": 59.560444444,
        "lon": 17.010138888,
        "wikidata": "Q10484290",
        "label": "Enköpings-Näs kyrka"
    }
    
    ,{
        "lat": 57.99231111,
        "lon": 13.01874167,
        "wikidata": "Q10509078",
        "label": "Grude kyrka"
    }
    
    ,{
        "lat": 55.46944444,
        "lon": 13.01888889,
        "wikidata": "Q10713846",
        "label": "Vellinge kyrka"
    }
    
    ,{
        "lat": 67.48671667,
        "lon": 22.65536667,
        "wikidata": "Q10543306",
        "label": "Kangos kyrka"
    }
    
    ,{
        "lat": 59.322222222,
        "lon": 17.994722222,
        "wikidata": "Q10659415",
        "label": "S:t Mikaels och Alla Änglars kyrka"
    }
    
    ,{
        "lat": 57.31800556,
        "lon": 12.17950833,
        "wikidata": "Q10658173",
        "label": "Rya kyrka"
    }
    
    ,{
        "lat": 57.18396,
        "lon": 14.048553,
        "wikidata": "Q740047",
        "label": "Värnamo kyrka"
    }
    
    ,{
        "lat": 58.15186111,
        "lon": 11.78947222,
        "wikidata": "Q10572565",
        "label": "Långelanda kyrka"
    }
    
    ,{
        "lat": 59.6578,
        "lon": 12.5942,
        "wikidata": "Q10701690",
        "label": "Trefaldighetskyrkan"
    }
    
    ,{
        "lat": 58.17388889,
        "lon": 13.40777778,
        "wikidata": "Q1742877",
        "label": "Gökhems kyrka"
    }
    
    ,{
        "lat": 64.67253611,
        "lon": 19.78852222,
        "wikidata": "Q10542959",
        "label": "Kalvträsks kyrka"
    }
    
    ,{
        "lat": 55.61888889,
        "lon": 13.32611111,
        "wikidata": "Q10489000",
        "label": "Esarps kyrka"
    }
    
    ,{
        "lat": 59.58057,
        "lon": 12.72718,
        "wikidata": "Q10532272",
        "label": "Högeruds kyrka"
    }
    
    ,{
        "lat": 55.55583333,
        "lon": 12.96444444,
        "wikidata": "Q10437757",
        "label": "Bunkeflo kyrka"
    }
    
    ,{
        "lat": 57.47991667,
        "lon": 18.39083333,
        "wikidata": "Q120275",
        "label": "Atlingbo kyrka"
    }
    
    ,{
        "lat": 57.72156944,
        "lon": 14.84291111,
        "wikidata": "Q10602575",
        "label": "Norra Solberga kyrka"
    }
    
    ,{
        "lat": 59.3175,
        "lon": 18.0375,
        "wikidata": "Q403322",
        "label": "Högalidskyrkan"
    }
    
    ,{
        "lat": 59.90887778,
        "lon": 18.26932222,
        "wikidata": "Q18451330",
        "label": "Knutby kyrka"
    }
    
    ,{
        "lat": 58.1238,
        "lon": 13.4131,
        "wikidata": "Q10512962",
        "label": "Göteve kyrka"
    }
    
    ,{
        "lat": 59.98141667,
        "lon": 18.17005,
        "wikidata": "Q10494078",
        "label": "Faringe kyrka"
    }
    
    ,{
        "lat": 58.39486111,
        "lon": 15.08669444,
        "wikidata": "Q10718867",
        "label": "Vårfrukyrkan"
    }
    
    ,{
        "lat": 55.69388889,
        "lon": 13.77527778,
        "wikidata": "Q10716629",
        "label": "Vollsjö kyrka"
    }
    
    ,{
        "lat": 59.4189,
        "lon": 17.1311,
        "wikidata": "Q10728657",
        "label": "Överselö kyrka"
    }
    
    ,{
        "lat": 58.38888889,
        "lon": 13.93555556,
        "wikidata": "Q1742862",
        "label": "Forsby kyrka"
    }
    
    ,{
        "lat": 61.80102778,
        "lon": 15.84816111,
        "wikidata": "Q10500832",
        "label": "Färila kyrka"
    }
    
    ,{
        "lat": 59.32653889,
        "lon": 18.072725,
        "wikidata": "Q10671642",
        "label": "Slottskyrkan"
    }
    
    ,{
        "lat": 55.74083333,
        "lon": 13.17138889,
        "wikidata": "Q10712367",
        "label": "Vallkärra kyrka"
    }
    
    ,{
        "lat": 59.1182,
        "lon": 14.3692,
        "wikidata": "Q10604971",
        "label": "Nysunds kyrka"
    }
    
    ,{
        "lat": 59.27243889,
        "lon": 17.74824167,
        "wikidata": "Q10480599",
        "label": "Ekerö kyrka"
    }
    
    ,{
        "lat": 57.80011,
        "lon": 13.59458,
        "wikidata": "Q18290298",
        "label": "Gullereds kyrka"
    }
    
    ,{
        "lat": 67.676,
        "lon": 21.6484,
        "wikidata": "Q10716407",
        "label": "Vittangi kyrka"
    }
    
    ,{
        "lat": 60.702555555,
        "lon": 17.158527777,
        "wikidata": "Q10682228",
        "label": "Strömsbro kyrka"
    }
    
    ,{
        "lat": 61.26123333,
        "lon": 16.81883889,
        "wikidata": "Q10428624",
        "label": "Bergviks kyrka"
    }
    
    ,{
        "lat": 59.79443056,
        "lon": 17.43938056,
        "wikidata": "Q10649193",
        "label": "Ramsta kyrka"
    }
    
    ,{
        "lat": 64.91463889,
        "lon": 19.47594444,
        "wikidata": "Q10603017",
        "label": "Norsjö kyrka"
    }
    
    ,{
        "lat": 59.49127778,
        "lon": 15.86627778,
        "wikidata": "Q10524193",
        "label": "Himmeta kyrka"
    }
    
    ,{
        "lat": 58.19510278,
        "lon": 13.81011389,
        "wikidata": "Q10713217",
        "label": "Varvs kyrka"
    }
    
    ,{
        "lat": 58.33078333,
        "lon": 11.677575,
        "wikidata": "Q10532456",
        "label": "Högås kyrka"
    }
    
    ,{
        "lat": 59.622,
        "lon": 18.168,
        "wikidata": "Q10499775",
        "label": "Frösunda kyrka"
    }
    
    ,{
        "lat": 57.64306,
        "lon": 18.29839,
        "wikidata": "Q10519523",
        "label": "Helgeand, Visby"
    }
    
    ,{
        "lat": 59.85613889,
        "lon": 17.43521667,
        "wikidata": "Q10717381",
        "label": "Vänge kyrka"
    }
    
    ,{
        "lat": 58.03027778,
        "lon": 13.27161111,
        "wikidata": "Q10487718",
        "label": "Eriksbergs gamla kyrka"
    }
    
    ,{
        "lat": 57.57281111,
        "lon": 11.78283333,
        "wikidata": "Q10717010",
        "label": "Vrångö kyrka"
    }
    
    ,{
        "lat": 65.92113889,
        "lon": 23.45375,
        "wikidata": "Q10430570",
        "label": "Björkfors kyrka"
    }
    
    ,{
        "lat": 58.02834167,
        "lon": 16.66925556,
        "wikidata": "Q10728263",
        "label": "Östra Eds kyrka"
    }
    
    ,{
        "lat": 60.96619444,
        "lon": 16.44825,
        "wikidata": "Q10726515",
        "label": "Åmots kyrka"
    }
    
    ,{
        "lat": 55.66111111,
        "lon": 13.26027778,
        "wikidata": "Q10430455",
        "label": "Bjällerups kyrka"
    }
    
    ,{
        "lat": 60.79595,
        "lon": 15.79761389,
        "wikidata": "Q10485080",
        "label": "Envikens gamla kyrka"
    }
    
    ,{
        "lat": 56.99947222,
        "lon": 13.30630556,
        "wikidata": "Q10500799",
        "label": "Färgaryds kyrka"
    }
    
    ,{
        "lat": 59.43918333,
        "lon": 14.69908889,
        "wikidata": "Q10543827",
        "label": "Karlsdals kapell"
    }
    
    ,{
        "lat": 55.79269444,
        "lon": 13.10491667,
        "wikidata": "Q10548172",
        "label": "Korsbackakyrkan"
    }
    
    ,{
        "lat": 65.6859,
        "lon": 18.1787,
        "wikidata": "Q10688865",
        "label": "Södra Bergnäs kyrka"
    }
    
    ,{
        "lat": 58.99008333,
        "lon": 14.0855,
        "wikidata": "Q16496567",
        "label": "Amnehärads kyrka"
    }
    
    ,{
        "lat": 55.81790278,
        "lon": 13.48358889,
        "wikidata": "Q10510289",
        "label": "Gudmuntorps kyrka"
    }
    
    ,{
        "lat": 59.39695556,
        "lon": 16.67493889,
        "wikidata": "Q10545969",
        "label": "Kjula kyrka"
    }
    
    ,{
        "lat": 58.02031667,
        "lon": 13.1521,
        "wikidata": "Q10671233",
        "label": "Skölvene kyrka"
    }
    
    ,{
        "lat": 62.51769444,
        "lon": 15.64359722,
        "wikidata": "Q10726537",
        "label": "Ånge kyrka"
    }
    
    ,{
        "lat": 59.75085,
        "lon": 18.39774,
        "wikidata": "Q10655397",
        "label": "Rimbo kyrka"
    }
    
    ,{
        "lat": 63.37694444,
        "lon": 18.46111111,
        "wikidata": "Q10587117",
        "label": "Mo kyrka"
    }
    
    ,{
        "lat": 55.57583333,
        "lon": 12.97083333,
        "wikidata": "Q10529118",
        "label": "Hyllie kyrka"
    }
    
    ,{
        "lat": 63.8175,
        "lon": 20.21194444,
        "wikidata": "Q10438709",
        "label": "Böleängkyrkan"
    }
    
    ,{
        "lat": 58.55766667,
        "lon": 16.60266667,
        "wikidata": "Q10531608",
        "label": "Häradshammars kyrka"
    }
    
    ,{
        "lat": 59.40584167,
        "lon": 16.59452778,
        "wikidata": "Q10516834",
        "label": "Hammarby kyrka"
    }
    
    ,{
        "lat": 58.23681944,
        "lon": 13.50991111,
        "wikidata": "Q10708551",
        "label": "Ugglums kyrka"
    }
    
    ,{
        "lat": 58.26297222,
        "lon": 12.94897222,
        "wikidata": "Q10712813",
        "label": "Vara kyrka"
    }
    
    ,{
        "lat": 57.28305556,
        "lon": 18.46583333,
        "wikidata": "Q963413",
        "label": "Stånga kyrka"
    }
    
    ,{
        "lat": 57.90383333,
        "lon": 12.906875,
        "wikidata": "Q10707956",
        "label": "Tämta kyrka"
    }
    
    ,{
        "lat": 59.393055555,
        "lon": 17.9025,
        "wikidata": "Q10692743",
        "label": "Tenstakyrkan"
    }
    
    ,{
        "lat": 56.45175,
        "lon": 12.95727778,
        "wikidata": "Q10670724",
        "label": "Skummeslövs kyrka"
    }
    
    ,{
        "lat": 55.87722222,
        "lon": 13.61861111,
        "wikidata": "Q10499960",
        "label": "Fulltofta kyrka"
    }
    
    ,{
        "lat": 57.81444444,
        "lon": 13.40972222,
        "wikidata": "Q10716200",
        "label": "Vists kyrka"
    }
    
    ,{
        "lat": 59.35986111,
        "lon": 16.90944444,
        "wikidata": "Q10531600",
        "label": "Härads kyrka"
    }
    
    ,{
        "lat": 59.8392,
        "lon": 12.3153,
        "wikidata": "Q10479825",
        "label": "Eda kyrka"
    }
    
    ,{
        "lat": 58.27691389,
        "lon": 12.74890833,
        "wikidata": "Q10499024",
        "label": "Fridhems kyrka"
    }
    
    ,{
        "lat": 55.8552662,
        "lon": 14.1452987,
        "wikidata": "Q385254",
        "label": "Vittskövle kyrka"
    }
    
    ,{
        "lat": 57.36596941,
        "lon": 18.68840933,
        "wikidata": "Q1288326",
        "label": "Ardre ödekyrka"
    }
    
    ,{
        "lat": 56.65777778,
        "lon": 14.85091667,
        "wikidata": "Q10542019",
        "label": "Jäts gamla kyrka"
    }
    
    ,{
        "lat": 58.4126,
        "lon": 14.9787,
        "wikidata": "Q10611588",
        "label": "Orlunda kyrka"
    }
    
    ,{
        "lat": 58.56755833,
        "lon": 11.36762222,
        "wikidata": "Q10551099",
        "label": "Kville kyrka"
    }
    
    ,{
        "lat": 57.853,
        "lon": 13.43625,
        "wikidata": "Q10698167",
        "label": "Timmele kyrka"
    }
    
    ,{
        "lat": 64.25516667,
        "lon": 20.24355556,
        "wikidata": "Q10433906",
        "label": "Botsmarks kyrka"
    }
    
    ,{
        "lat": 56.355,
        "lon": 14.589,
        "wikidata": "Q18291547",
        "label": "Kyrkhults kyrka"
    }
    
    ,{
        "lat": 55.62138889,
        "lon": 13.16,
        "wikidata": "Q10688134",
        "label": "Särslövs kyrka"
    }
    
    ,{
        "lat": 58.0734,
        "lon": 13.5594,
        "wikidata": "Q10718884",
        "label": "Vårkumla kyrka"
    }
    
    ,{
        "lat": 56.73925,
        "lon": 16.72463,
        "wikidata": "Q1742921",
        "label": "Långlöts kyrka"
    }
    
    ,{
        "lat": 57.47108333,
        "lon": 14.31602778,
        "wikidata": "Q10684721",
        "label": "Svenarums kyrka"
    }
    
    ,{
        "lat": 59.48330278,
        "lon": 17.04598056,
        "wikidata": "Q10420460",
        "label": "Aspö kyrka"
    }
    
    ,{
        "lat": 63.31769722,
        "lon": 14.81441944,
        "wikidata": "Q10567893",
        "label": "Lits kyrka"
    }
    
    ,{
        "lat": 55.90474722,
        "lon": 12.85473056,
        "wikidata": "Q10687885",
        "label": "Säby kyrka"
    }
    
    ,{
        "lat": 59.86769444,
        "lon": 17.649875,
        "wikidata": "Q10661467",
        "label": "Sankt Pers kyrka"
    }
    
    ,{
        "lat": 55.83873611,
        "lon": 14.09226389,
        "wikidata": "Q18287841",
        "label": "Degeberga kyrka"
    }
    
    ,{
        "lat": 59.3425,
        "lon": 18.0475,
        "wikidata": "Q1555501",
        "label": "Gustaf Vasa kyrka"
    }
    
    ,{
        "lat": 59.55494444,
        "lon": 17.14027778,
        "wikidata": "Q10712310",
        "label": "Vallby kyrka"
    }
    
    ,{
        "lat": 59.86045,
        "lon": 17.65650833,
        "wikidata": "Q16157533",
        "label": "Almtunakyrkan"
    }
    
    ,{
        "lat": 55.58527778,
        "lon": 13.11916667,
        "wikidata": "Q10688984",
        "label": "Södra Sallerups kyrka"
    }
    
    ,{
        "lat": 57.86963889,
        "lon": 18.87697222,
        "wikidata": "Q1604799",
        "label": "Fleringe kyrka"
    }
    
    ,{
        "lat": 58.41416667,
        "lon": 15.6,
        "wikidata": "Q10412958",
        "label": "Ansgarskyrkan"
    }
    
    ,{
        "lat": 58.75875,
        "lon": 14.80416667,
        "wikidata": "Q16162771",
        "label": "Birgittakyrkan"
    }
    
    ,{
        "lat": 58.50814444,
        "lon": 11.32053889,
        "wikidata": "Q10684752",
        "label": "Svenneby kyrka"
    }
    
    ,{
        "lat": 58.05510833,
        "lon": 12.89706944,
        "wikidata": "Q10437022",
        "label": "Bråttensby kyrka"
    }
    
    ,{
        "lat": 59.38,
        "lon": 13.50777778,
        "wikidata": "Q10426216",
        "label": "Baptistkyrkan"
    }
    
    ,{
        "lat": 59.03655556,
        "lon": 16.43483333,
        "wikidata": "Q10671215",
        "label": "Sköldinge kyrka"
    }
    
    ,{
        "lat": 56.97194444,
        "lon": 15.76861111,
        "wikidata": "Q10499753",
        "label": "Fröseke kapell"
    }
    
    ,{
        "lat": 61.75430556,
        "lon": 17.0805,
        "wikidata": "Q10531499",
        "label": "Hälsingtuna kyrka"
    }
    
    ,{
        "lat": 57.61944444,
        "lon": 16.30794444,
        "wikidata": "Q10524753",
        "label": "Hjorteds kyrka"
    }
    
    ,{
        "lat": 60.66444444,
        "lon": 17.07,
        "wikidata": "Q10712148",
        "label": "Valbo kyrka"
    }
    
    ,{
        "lat": 58.51247222,
        "lon": 13.49193333,
        "wikidata": "Q10718511",
        "label": "Vättlösa kyrka"
    }
    
    ,{
        "lat": 58.05329444,
        "lon": 11.85289444,
        "wikidata": "Q10603090",
        "label": "Norums kyrka"
    }
    
    ,{
        "lat": 55.77300278,
        "lon": 14.15319722,
        "wikidata": "Q10575272",
        "label": "Maglehems kyrka"
    }
    
    ,{
        "lat": 60.18732,
        "lon": 18.39169,
        "wikidata": "Q10518097",
        "label": "Hargs kyrka"
    }
    
    ,{
        "lat": 59.4325,
        "lon": 17.95361111,
        "wikidata": "Q10661341",
        "label": "Sankt Eriks kyrka"
    }
    
    ,{
        "lat": 58.47864167,
        "lon": 12.89920278,
        "wikidata": "Q10602474",
        "label": "Norra Kedums kyrka"
    }
    
    ,{
        "lat": 65.8047,
        "lon": 21.7357,
        "wikidata": "Q18292257",
        "label": "Matteuskyrkan"
    }
    
    ,{
        "lat": 58.2679,
        "lon": 13.7081,
        "wikidata": "Q10679291",
        "label": "Stenstorps kyrka"
    }
    
    ,{
        "lat": 56.61788889,
        "lon": 13.60897222,
        "wikidata": "Q10524256",
        "label": "Hinneryds kyrka"
    }
    
    ,{
        "lat": 58.87798611,
        "lon": 14.89730556,
        "wikidata": "Q10419800",
        "label": "Askersunds landskyrka"
    }
    
    ,{
        "lat": 61.12,
        "lon": 14.614444444,
        "wikidata": "Q3372075",
        "label": "Orsa kyrka"
    }
    
    ,{
        "lat": 57.21147222,
        "lon": 12.39616667,
        "wikidata": "Q10677491",
        "label": "Stamnareds kyrka"
    }
    
    ,{
        "lat": 59.42595556,
        "lon": 16.339025,
        "wikidata": "Q10706207",
        "label": "Tumbo kyrka"
    }
    
    ,{
        "lat": 57.55507,
        "lon": 13.38102,
        "wikidata": "Q10689092",
        "label": "Södra Åsarps kyrka"
    }
    
    ,{
        "lat": 65.08426389,
        "lon": 15.144375,
        "wikidata": "Q10494331",
        "label": "Fatmomakke kapell"
    }
    
    ,{
        "lat": 58.2555,
        "lon": 13.6041,
        "wikidata": "Q10532017",
        "label": "Håkantorps kyrka"
    }
    
    ,{
        "lat": 57.12069444,
        "lon": 14.56340278,
        "wikidata": "Q10411537",
        "label": "Aneboda kyrka"
    }
    
    ,{
        "lat": 56.15684167,
        "lon": 13.77022222,
        "wikidata": "Q10531824",
        "label": "Hässleholms kyrka"
    }
    
    ,{
        "lat": 58.50361111,
        "lon": 11.48944444,
        "wikidata": "Q10438526",
        "label": "Bärfendals kyrka"
    }
    
    ,{
        "lat": 55.87222222,
        "lon": 12.83166667,
        "wikidata": "Q10661380",
        "label": "Sankt Johannis Babtistae kyrka"
    }
    
    ,{
        "lat": 58.19060833,
        "lon": 11.95501944,
        "wikidata": "Q10508855",
        "label": "Grinneröds kyrka"
    }
    
    ,{
        "lat": 59.29580556,
        "lon": 17.93441667,
        "wikidata": "Q10435066",
        "label": "Bredängs kyrka"
    }
    
    ,{
        "lat": 56.41038889,
        "lon": 15.54299444,
        "wikidata": "Q10667824",
        "label": "Sillhövda kyrka"
    }
    
    ,{
        "lat": 56.19660556,
        "lon": 15.402125,
        "wikidata": "Q10567476",
        "label": "Listerby kyrka"
    }
    
    ,{
        "lat": 59.23908333,
        "lon": 17.81838889,
        "wikidata": "Q10433725",
        "label": "Botkyrka kyrka"
    }
    
    ,{
        "lat": 57.73503056,
        "lon": 11.67722778,
        "wikidata": "Q10430651",
        "label": "Björkö kyrka"
    }
    
    ,{
        "lat": 55.39861111,
        "lon": 13.10777778,
        "wikidata": "Q10718381",
        "label": "Västra Tommarps kyrka"
    }
    
    ,{
        "lat": 59.35683333,
        "lon": 16.478,
        "wikidata": "Q10699463",
        "label": "Tomaskyrkan"
    }
    
    ,{
        "lat": 58.9473,
        "lon": 17.49920556,
        "wikidata": "Q10712014",
        "label": "Vagnhärads kyrka"
    }
    
    ,{
        "lat": 64.18787778,
        "lon": 20.85755278,
        "wikidata": "Q10656161",
        "label": "Robertsfors kyrka"
    }
    
    ,{
        "lat": 62.31263889,
        "lon": 17.05494444,
        "wikidata": "Q10422199",
        "label": "Attmars kyrka"
    }
    
    ,{
        "lat": 57.55603611,
        "lon": 15.10795,
        "wikidata": "Q10581243",
        "label": "Mellby kyrka"
    }
    
    ,{
        "lat": 57.71447,
        "lon": 12.04696,
        "wikidata": "Q10430552",
        "label": "Björkekärrs kyrka"
    }
    
    ,{
        "lat": 58.35046667,
        "lon": 15.09780833,
        "wikidata": "Q10532241",
        "label": "Högby kyrka"
    }
    
    ,{
        "lat": 57.04222222,
        "lon": 13.35361111,
        "wikidata": "Q10572522",
        "label": "Långaryds kyrka"
    }
    
    ,{
        "lat": 59.31916111,
        "lon": 15.40196667,
        "wikidata": "Q10505249",
        "label": "Glanshammars kyrka"
    }
    
    ,{
        "lat": 57.75594167,
        "lon": 16.63821389,
        "wikidata": "Q10661480",
        "label": "Sankt Petri kyrka"
    }
    
    ,{
        "lat": 60.02361111,
        "lon": 14.95,
        "wikidata": "Q10532606",
        "label": "Hörkens kyrka"
    }
    
    ,{
        "lat": 60.37500556,
        "lon": 17.54953611,
        "wikidata": "Q10699343",
        "label": "Tolfta kyrka"
    }
    
    ,{
        "lat": 58.69536667,
        "lon": 11.25308333,
        "wikidata": "Q10508515",
        "label": "Grebbestads kyrka"
    }
    
    ,{
        "lat": 60.22688889,
        "lon": 17.70602778,
        "wikidata": "Q10727439",
        "label": "Örbyhus kyrka"
    }
    
    ,{
        "lat": 55.59833333,
        "lon": 14.04861111,
        "wikidata": "Q10610181",
        "label": "Onslunda kyrka"
    }
    
    ,{
        "lat": 56.26,
        "lon": 12.97416667,
        "wikidata": "Q10590263",
        "label": "Munka-Ljungby kyrka"
    }
    
    ,{
        "lat": 59.63338333,
        "lon": 16.98914722,
        "wikidata": "Q10698049",
        "label": "Tillinge kyrka"
    }
    
    ,{
        "lat": 58.81885278,
        "lon": 11.33141111,
        "wikidata": "Q10570971",
        "label": "Lurs kyrka"
    }
    
    ,{
        "lat": 58.762786111,
        "lon": 17.028483333,
        "wikidata": "Q67183772",
        "label": "Hjortensbergskyrkan"
    }
    
    ,{
        "lat": 58.48474444,
        "lon": 13.97244722,
        "wikidata": "Q10568684",
        "label": "Locketorps kyrka"
    }
    
    ,{
        "lat": 59.25277778,
        "lon": 17.49166667,
        "wikidata": "Q10723829",
        "label": "Ytterenhörna kyrka"
    }
    
    ,{
        "lat": 58.28111111,
        "lon": 12.27138889,
        "wikidata": "Q10534725",
        "label": "Immanuelskyrkan"
    }
    
    ,{
        "lat": 58.50162222,
        "lon": 15.24114722,
        "wikidata": "Q10572867",
        "label": "Lönsås kyrka"
    }
    
    ,{
        "lat": 57.89557222,
        "lon": 11.82794722,
        "wikidata": "Q10532077",
        "label": "Hålta kyrka"
    }
    
    ,{
        "lat": 58.28388889,
        "lon": 11.91333333,
        "wikidata": "Q10498131",
        "label": "Forshälla kyrka"
    }
    
    ,{
        "lat": 56.69794167,
        "lon": 14.91368333,
        "wikidata": "Q10711151",
        "label": "Uråsa kyrka"
    }
    
    ,{
        "lat": 59.02943056,
        "lon": 12.17411111,
        "wikidata": "Q10726064",
        "label": "Ärtemarks kyrka"
    }
    
    ,{
        "lat": 60.14925,
        "lon": 16.16697222,
        "wikidata": "Q10423529",
        "label": "Avesta kyrka"
    }
    
    ,{
        "lat": 61.69490278,
        "lon": 13.14208333,
        "wikidata": "Q10688116",
        "label": "Särna gammelkyrka"
    }
    
    ,{
        "lat": 56.13986111,
        "lon": 13.50097222,
        "wikidata": "Q10718392",
        "label": "Västra Torups kyrka"
    }
    
    ,{
        "lat": 58.61980556,
        "lon": 13.48997222,
        "wikidata": "Q1736620",
        "label": "Forshems kyrka"
    }
    
    ,{
        "lat": 58.62352778,
        "lon": 12.51086111,
        "wikidata": "Q10508861",
        "label": "Grinstads kyrka"
    }
    
    ,{
        "lat": 58.45,
        "lon": 12.7788,
        "wikidata": "Q10499070",
        "label": "Friels kyrka"
    }
    
    ,{
        "lat": 64.90897222,
        "lon": 17.85925,
        "wikidata": "Q10726919",
        "label": "Åskilje kyrka"
    }
    
    ,{
        "lat": 60.37211667,
        "lon": 18.15971389,
        "wikidata": "Q10498157",
        "label": "Forsmarks kyrka"
    }
    
    ,{
        "lat": 59.03088889,
        "lon": 12.32358333,
        "wikidata": "Q10555270",
        "label": "Laxarby kyrka"
    }
    
    ,{
        "lat": 58.07944444,
        "lon": 16.35138889,
        "wikidata": "Q10708643",
        "label": "Ukna kyrka"
    }
    
    ,{
        "lat": 57.85638889,
        "lon": 11.99444444,
        "wikidata": "Q10658884",
        "label": "Rödbo kyrka"
    }
    
    ,{
        "lat": 58.59965556,
        "lon": 14.14644444,
        "wikidata": "Q10480608",
        "label": "Ekeskogs kyrka"
    }
    
    ,{
        "lat": 63.81958889,
        "lon": 20.25465833,
        "wikidata": "Q10691910",
        "label": "Tegs kyrka"
    }
    
    ,{
        "lat": 59.42196111,
        "lon": 16.56541111,
        "wikidata": "Q10712307",
        "label": "Vallby kyrka"
    }
    
    ,{
        "lat": 57.350909,
        "lon": 14.764745,
        "wikidata": "Q1742945",
        "label": "Skepperstads kyrka"
    }
    
    ,{
        "lat": 55.596065,
        "lon": 12.962971,
        "wikidata": "Q10707822",
        "label": "Tyska kyrkan"
    }
    
    ,{
        "lat": 60.55166667,
        "lon": 16.28777778,
        "wikidata": "Q10525049",
        "label": "Hofors kyrka"
    }
    
    ,{
        "lat": 66.39025,
        "lon": 23.65708889,
        "wikidata": "Q10728681",
        "label": "Övertorneå kyrka"
    }
    
    ,{
        "lat": 57.02055556,
        "lon": 14.5125,
        "wikidata": "Q10671830",
        "label": "Slätthögs kyrka"
    }
    
    ,{
        "lat": 59.332638888,
        "lon": 18.102361111,
        "wikidata": "Q1342596",
        "label": "Engelska kyrkan"
    }
    
    ,{
        "lat": 65.57080556,
        "lon": 22.10544444,
        "wikidata": "Q17561302",
        "label": "Bergnäskyrkan"
    }
    
    ,{
        "lat": 59.10581667,
        "lon": 18.03858333,
        "wikidata": "Q10706335",
        "label": "Tungelsta kyrka"
    }
    
    ,{
        "lat": 58.382333333,
        "lon": 13.814388888,
        "wikidata": "Q1742976",
        "label": "Våmbs kyrka"
    }
    
    ,{
        "lat": 59.195,
        "lon": 17.58416667,
        "wikidata": "Q10661419",
        "label": "Sankt Mikaels kyrka"
    }
    
    ,{
        "lat": 58.95694444,
        "lon": 15.05972222,
        "wikidata": "Q5220179",
        "label": "Lerbäcks kyrka"
    }
    
    ,{
        "lat": 57.69873889,
        "lon": 16.000375,
        "wikidata": "Q10499696",
        "label": "Frödinge kyrka"
    }
    
    ,{
        "lat": 57.827125,
        "lon": 13.14563889,
        "wikidata": "Q10713135",
        "label": "Varnums kyrka"
    }
    
    ,{
        "lat": 58.03143056,
        "lon": 12.88729444,
        "wikidata": "Q10553784",
        "label": "Landa kyrka"
    }
    
    ,{
        "lat": 59.16985,
        "lon": 18.14256667,
        "wikidata": "Q10661348",
        "label": "Sankt Eskils kyrka"
    }
    
    ,{
        "lat": 59.21778889,
        "lon": 18.15166667,
        "wikidata": "Q10577239",
        "label": "Mariakyrkan"
    }
    
    ,{
        "lat": 55.49138889,
        "lon": 13.85611111,
        "wikidata": "Q10433321",
        "label": "Borrie kyrka"
    }
    
    ,{
        "lat": 59.60475833,
        "lon": 18.11005,
        "wikidata": "Q10611575",
        "label": "Orkesta kyrka"
    }
    
    ,{
        "lat": 57.49138889,
        "lon": 13.67777778,
        "wikidata": "Q10727525",
        "label": "Öreryds kyrka"
    }
    
    ,{
        "lat": 55.7783,
        "lon": 14.03756667,
        "wikidata": "Q10532629",
        "label": "Hörröds kyrka"
    }
    
    ,{
        "lat": 59.37501,
        "lon": 18.17958,
        "wikidata": "Q10657602",
        "label": "Rudboda kyrka"
    }
    
    ,{
        "lat": 63.84444427,
        "lon": 20.32805634,
        "wikidata": "Q10577240",
        "label": "Mariakyrkan"
    }
    
    ,{
        "lat": 67.852,
        "lon": 20.232972222,
        "wikidata": "Q1742908",
        "label": "Kiruna kyrka"
    }
    
    ,{
        "lat": 57.14393611,
        "lon": 12.46767222,
        "wikidata": "Q10656470",
        "label": "Rolfstorps kyrka"
    }
    
    ,{
        "lat": 57.11253611,
        "lon": 13.81225,
        "wikidata": "Q10700381",
        "label": "Torskinge kyrka"
    }
    
    ,{
        "lat": 59.327777777,
        "lon": 17.9675,
        "wikidata": "Q10717969",
        "label": "Västerledskyrkan"
    }
    
    ,{
        "lat": 57.97456944,
        "lon": 12.66483333,
        "wikidata": "Q10525507",
        "label": "Hols kyrka"
    }
    
    ,{
        "lat": 64.64323056,
        "lon": 13.84678889,
        "wikidata": "Q10715228",
        "label": "Vikens kapell"
    }
    
    ,{
        "lat": 65.83381667,
        "lon": 20.52046944,
        "wikidata": "Q10715128",
        "label": "Vidsels kyrka"
    }
    
    ,{
        "lat": 61.13361111,
        "lon": 13.96638889,
        "wikidata": "Q10492796",
        "label": "Evertsbergs kapell"
    }
    
    ,{
        "lat": 58.67197222,
        "lon": 17.10241667,
        "wikidata": "Q10661331",
        "label": "Sankt Botvids kyrka"
    }
    
    ,{
        "lat": 57.39985556,
        "lon": 16.20126667,
        "wikidata": "Q10549142",
        "label": "Kristdala kyrka"
    }
    
    ,{
        "lat": 56.74277778,
        "lon": 12.96258333,
        "wikidata": "Q10484432",
        "label": "Enslövs kyrka"
    }
    
    ,{
        "lat": 58.2243,
        "lon": 13.5305,
        "wikidata": "Q10728446",
        "label": "Östra Tunhems kyrka"
    }
    
    ,{
        "lat": 57.32027778,
        "lon": 14.86888889,
        "wikidata": "Q10499691",
        "label": "Fröderyds kyrka"
    }
    
    ,{
        "lat": 58.28186667,
        "lon": 16.21931111,
        "wikidata": "Q10723988",
        "label": "Yxnerums kyrka"
    }
    
    ,{
        "lat": 55.759138888,
        "lon": 13.327527777,
        "wikidata": "Q10512547",
        "label": "Gårdstånga kyrka"
    }
    
    ,{
        "lat": 61.39677778,
        "lon": 16.83688889,
        "wikidata": "Q10705692",
        "label": "Trönö nya kyrka"
    }
    
    ,{
        "lat": 55.88472222,
        "lon": 14.01694444,
        "wikidata": "Q10728421",
        "label": "Östra Sönnarslövs kyrka"
    }
    
    ,{
        "lat": 59.360277777,
        "lon": 17.832222222,
        "wikidata": "Q10531786",
        "label": "Hässelby Strands kyrka"
    }
    
    ,{
        "lat": 63.5312,
        "lon": 16.46253333,
        "wikidata": "Q10649168",
        "label": "Ramsele gamla kyrka"
    }
    
    ,{
        "lat": 58.96777778,
        "lon": 16.36083333,
        "wikidata": "Q10681061",
        "label": "Stora Malms kyrka"
    }
    
    ,{
        "lat": 62.65747222,
        "lon": 16.63075,
        "wikidata": "Q10525323",
        "label": "Holms kyrka"
    }
    
    ,{
        "lat": 63.69045,
        "lon": 20.22745,
        "wikidata": "Q18333019",
        "label": "Strömbäcks kyrka"
    }
    
    ,{
        "lat": 57.69902778,
        "lon": 11.96227778,
        "wikidata": "Q5638502",
        "label": "Hagakyrkan"
    }
    
    ,{
        "lat": 58.07368056,
        "lon": 12.16476667,
        "wikidata": "Q10706331",
        "label": "Tunge kyrka"
    }
    
    ,{
        "lat": 56.23655,
        "lon": 13.52195,
        "wikidata": "Q10658994",
        "label": "Röke kyrka"
    }
    
    ,{
        "lat": 58.35207222,
        "lon": 12.32799167,
        "wikidata": "Q10610177",
        "label": "Onsjökyrkan"
    }
    
    ,{
        "lat": 62.53525,
        "lon": 12.61205556,
        "wikidata": "Q10568458",
        "label": "Ljusnedals kyrka"
    }
    
    ,{
        "lat": 59.43336111,
        "lon": 16.63602222,
        "wikidata": "Q10683748",
        "label": "Sundby kyrka"
    }
    
    ,{
        "lat": 58.44562778,
        "lon": 11.37530278,
        "wikidata": "Q10700568",
        "label": "Tossene kyrka"
    }
    
    ,{
        "lat": 55.765,
        "lon": 13.171943888,
        "wikidata": "Q10682935",
        "label": "Stångby kyrka"
    }
    
    ,{
        "lat": 59.08018056,
        "lon": 17.295525,
        "wikidata": "Q10544454",
        "label": "Kattnäs kyrka"
    }
    
    ,{
        "lat": 59.36555556,
        "lon": 18.13222222,
        "wikidata": "Q10412957",
        "label": "Ansgarskyrkan"
    }
    
    ,{
        "lat": 66.56389167,
        "lon": 23.84438611,
        "wikidata": "Q10541471",
        "label": "Juoksengi kyrka"
    }
    
    ,{
        "lat": 57.34607778,
        "lon": 12.18888611,
        "wikidata": "Q10553783",
        "label": "Landa kyrka"
    }
    
    ,{
        "lat": 56.851,
        "lon": 15.03405556,
        "wikidata": "Q10500237",
        "label": "Furuby kyrka"
    }
    
    ,{
        "lat": 61.49021667,
        "lon": 16.38061667,
        "wikidata": "Q10417107",
        "label": "Arbrå kyrka"
    }
    
    ,{
        "lat": 59.53359722,
        "lon": 17.76716111,
        "wikidata": "Q18335008",
        "label": "Västra Ryds kyrka"
    }
    
    ,{
        "lat": 56.76611111,
        "lon": 16.59597222,
        "wikidata": "Q18290846",
        "label": "Högsrums kyrka"
    }
    
    ,{
        "lat": 64.26384444,
        "lon": 16.41227222,
        "wikidata": "Q8392583",
        "label": "Dorotea kyrka"
    }
    
    ,{
        "lat": 56.19339,
        "lon": 14.75032,
        "wikidata": "Q10593680",
        "label": "Mörrums kyrka"
    }
    
    ,{
        "lat": 57.55740278,
        "lon": 12.79263889,
        "wikidata": "Q10499286",
        "label": "Fritsla kyrka"
    }
    
    ,{
        "lat": 58.02670278,
        "lon": 13.27488333,
        "wikidata": "Q10487722",
        "label": "Eriksbergs nya kyrka"
    }
    
    ,{
        "lat": 60.48361111,
        "lon": 15.40141667,
        "wikidata": "Q10539291",
        "label": "Jakobs kapell"
    }
    
    ,{
        "lat": 57.80527778,
        "lon": 12.37983333,
        "wikidata": "Q10669652",
        "label": "Skallsjö kyrka"
    }
    
    ,{
        "lat": 59.79685556,
        "lon": 17.84001944,
        "wikidata": "Q10553242",
        "label": "Lagga kyrka"
    }
    
    ,{
        "lat": 58.75836111,
        "lon": 11.89430556,
        "wikidata": "Q10559576",
        "label": "Lerdals kyrka"
    }
    
    ,{
        "lat": 58.29643611,
        "lon": 12.07890556,
        "wikidata": "Q10474964",
        "label": "Djurhults kapell"
    }
    
    ,{
        "lat": 57.74963889,
        "lon": 12.24327778,
        "wikidata": "Q10419910",
        "label": "Aspenkyrkan"
    }
    
    ,{
        "lat": 57.8598,
        "lon": 13.55369444,
        "wikidata": "Q18291287",
        "label": "Knätte kyrka"
    }
    
    ,{
        "lat": 59.36669444,
        "lon": 18.15727778,
        "wikidata": "Q10561362",
        "label": "Lidingö kyrka"
    }
    
    ,{
        "lat": 57.54744444,
        "lon": 18.39244444,
        "wikidata": "Q185947",
        "label": "Akebäcks kyrka"
    }
    
    ,{
        "lat": 57.60611111,
        "lon": 12.05555556,
        "wikidata": "Q10552012",
        "label": "Kållereds kyrka"
    }
    
    ,{
        "lat": 59.807083333,
        "lon": 18.559638888,
        "wikidata": "Q10568868",
        "label": "Lohärads kyrka"
    }
    
    ,{
        "lat": 56.11308333,
        "lon": 13.62663889,
        "wikidata": "Q10578511",
        "label": "Matteröds kyrka"
    }
    
    ,{
        "lat": 59.331735,
        "lon": 18.072427,
        "wikidata": "Q1131130",
        "label": "Sankta Eugenia katolska församling"
    }
    
    ,{
        "lat": 58.38444444,
        "lon": 15.19805556,
        "wikidata": "Q10522610",
        "label": "Herrberga kyrka"
    }
    
    ,{
        "lat": 57.696666666,
        "lon": 11.9475,
        "wikidata": "Q606334",
        "label": "Oscar Fredriks kyrka"
    }
    
    ,{
        "lat": 61.76638889,
        "lon": 17.04083333,
        "wikidata": "Q10532348",
        "label": "Högs kyrka"
    }
    
    ,{
        "lat": 58.43233333,
        "lon": 16.58878056,
        "wikidata": "Q10670923",
        "label": "Skällviks kyrka"
    }
    
    ,{
        "lat": 63.17913,
        "lon": 14.52022,
        "wikidata": "Q10499798",
        "label": "Frösö kyrka"
    }
    
    ,{
        "lat": 57.44524,
        "lon": 18.71139,
        "wikidata": "Q166592",
        "label": "Kräklingbo kyrka"
    }
    
    ,{
        "lat": 57.8884,
        "lon": 11.96565,
        "wikidata": "Q18292407",
        "label": "Munkegärdekyrkan"
    }
    
    ,{
        "lat": 58.56934167,
        "lon": 13.10433056,
        "wikidata": "Q10683942",
        "label": "Sunnersbergs kyrka"
    }
    
    ,{
        "lat": 56.69114444,
        "lon": 16.34295833,
        "wikidata": "Q10661515",
        "label": "Sankta Birgitta kyrka"
    }
    
    ,{
        "lat": 57.769722222,
        "lon": 18.455555555,
        "wikidata": "Q640779",
        "label": "Lummelunda kyrka"
    }
    
    ,{
        "lat": 58.49291667,
        "lon": 11.81527778,
        "wikidata": "Q10712143",
        "label": "Valbo-Ryrs kyrka"
    }
    
    ,{
        "lat": 57.48808889,
        "lon": 15.02339722,
        "wikidata": "Q10480585",
        "label": "Ekenässjöns kyrka"
    }
    
    ,{
        "lat": 61.22610278,
        "lon": 14.04174722,
        "wikidata": "Q10725686",
        "label": "Älvdalens kyrka"
    }
    
    ,{
        "lat": 59.51321667,
        "lon": 15.98986667,
        "wikidata": "Q10552186",
        "label": "Köpings kyrka"
    }
    
    ,{
        "lat": 56.67855,
        "lon": 12.85271667,
        "wikidata": "Q10701691",
        "label": "Trefaldighetskyrkan"
    }
    
    ,{
        "lat": 58.18552778,
        "lon": 16.80016667,
        "wikidata": "Q10509678",
        "label": "Gryts kyrka"
    }
    
    ,{
        "lat": 60.614444444,
        "lon": 15.629722222,
        "wikidata": "Q10681038",
        "label": "Stora Kopparbergs kyrka"
    }
    
    ,{
        "lat": 60.38855556,
        "lon": 16.00041667,
        "wikidata": "Q10527349",
        "label": "Husby kyrka"
    }
    
    ,{
        "lat": 58.21884444,
        "lon": 13.10376944,
        "wikidata": "Q10571880",
        "label": "Längjums kyrka"
    }
    
    ,{
        "lat": 58.3848,
        "lon": 13.4457,
        "wikidata": "Q10669759",
        "label": "Skara gravkapell"
    }
    
    ,{
        "lat": 59.64655,
        "lon": 16.53483333,
        "wikidata": "Q10727377",
        "label": "Önsta Gryta kyrka"
    }
    
    ,{
        "lat": 66.39307778,
        "lon": 18.21994444,
        "wikidata": "Q10602406",
        "label": "Norra Bergnäs kapell"
    }
    
    ,{
        "lat": 55.82190833,
        "lon": 13.09597222,
        "wikidata": "Q10688841",
        "label": "Södervidinge kyrka"
    }
    
    ,{
        "lat": 55.64638889,
        "lon": 13.27083333,
        "wikidata": "Q10551457",
        "label": "Kyrkheddinge kyrka"
    }
    
    ,{
        "lat": 56.0106,
        "lon": 14.24853,
        "wikidata": "Q10511122",
        "label": "Gustav Adolfs kyrka"
    }
    
    ,{
        "lat": 58.42611111,
        "lon": 14.15527778,
        "wikidata": "Q10532460",
        "label": "Högåskyrkan"
    }
    
    ,{
        "lat": 56.77723333,
        "lon": 14.43003611,
        "wikidata": "Q10716131",
        "label": "Vislanda kyrka"
    }
    
    ,{
        "lat": 55.68805556,
        "lon": 13.07944444,
        "wikidata": "Q10569025",
        "label": "Lomma kyrka"
    }
    
    ,{
        "lat": 58.6199,
        "lon": 14.9716,
        "wikidata": "Q10718317",
        "label": "Västra Ny kyrka"
    }
    
    ,{
        "lat": 57.43033333,
        "lon": 18.42658333,
        "wikidata": "Q1742874",
        "label": "Guldrupe kyrka"
    }
    
    ,{
        "lat": 59.75068,
        "lon": 18.01754,
        "wikidata": "Q10527324",
        "label": "Husby-Långhundra kyrka"
    }
    
    ,{
        "lat": 55.98416667,
        "lon": 14.27,
        "wikidata": "Q10655531",
        "label": "Rinkaby kyrka"
    }
    
    ,{
        "lat": 56.69955556,
        "lon": 13.85272222,
        "wikidata": "Q10516940",
        "label": "Hamneda kyrka"
    }
    
    ,{
        "lat": 64.99069444,
        "lon": 18.51477778,
        "wikidata": "Q10430602",
        "label": "Björksele kyrka"
    }
    
    ,{
        "lat": 59.832944444,
        "lon": 17.744888888,
        "wikidata": "Q5219988",
        "label": "Danmarks kyrka"
    }
    
    ,{
        "lat": 60.07866,
        "lon": 15.02433,
        "wikidata": "Q10509726",
        "label": "Grängesbergs kyrka"
    }
    
    ,{
        "lat": 55.53548,
        "lon": 14.32178,
        "wikidata": "Q10668149",
        "label": "Simris kyrka"
    }
    
    ,{
        "lat": 57.7840004,
        "lon": 14.15530014,
        "wikidata": "Q10671640",
        "label": "Slottskapellet"
    }
    
    ,{
        "lat": 56.29527778,
        "lon": 12.835,
        "wikidata": "Q10426436",
        "label": "Barkåkra kyrka"
    }
    
    ,{
        "lat": 57.52079,
        "lon": 18.34518,
        "wikidata": "Q1639879",
        "label": "Valls kyrka"
    }
    
    ,{
        "lat": 57.44158,
        "lon": 12.51687,
        "wikidata": "Q10684176",
        "label": "Surteby kyrka"
    }
    
    ,{
        "lat": 59.36166667,
        "lon": 17.99472222,
        "wikidata": "Q10480573",
        "label": "Ekensbergskyrkan"
    }
    
    ,{
        "lat": 58.37406944,
        "lon": 12.66041667,
        "wikidata": "Q10726792",
        "label": "Ås kyrka"
    }
    
    ,{
        "lat": 56.16290833,
        "lon": 14.75066667,
        "wikidata": "Q10481770",
        "label": "Elleholms kyrka"
    }
    
    ,{
        "lat": 66.605138888,
        "lon": 19.841861111,
        "wikidata": "Q1742892",
        "label": "Jokkmokks nya kyrka"
    }
    
    ,{
        "lat": 55.59638889,
        "lon": 13.34083333,
        "wikidata": "Q10571560",
        "label": "Lyngby kyrka"
    }
    
    ,{
        "lat": 57.48431389,
        "lon": 13.54997222,
        "wikidata": "Q10508834",
        "label": "Grimsås kyrka"
    }
    
    ,{
        "lat": 58.21758056,
        "lon": 11.90850278,
        "wikidata": "Q10568364",
        "label": "Ljungs kyrka"
    }
    
    ,{
        "lat": 56.49416667,
        "lon": 13.11819444,
        "wikidata": "Q18450343",
        "label": "Ysby kyrka"
    }
    
    ,{
        "lat": 55.83888889,
        "lon": 13.23888889,
        "wikidata": "Q10650854",
        "label": "Remmarlövs kyrka"
    }
    
    ,{
        "lat": 56.7409,
        "lon": 14.929,
        "wikidata": "Q10728442",
        "label": "Östra Torsås kyrka"
    }
    
    ,{
        "lat": 61.98291667,
        "lon": 15.31236111,
        "wikidata": "Q10552044",
        "label": "Kårböle kyrka"
    }
    
    ,{
        "lat": 56.78280556,
        "lon": 14.73255556,
        "wikidata": "Q10713585",
        "label": "Vederslövs gamla kyrka"
    }
    
    ,{
        "lat": 59.14716667,
        "lon": 15.57963889,
        "wikidata": "Q10571924",
        "label": "Lännäs kyrka"
    }
    
    ,{
        "lat": 56.81652778,
        "lon": 16.03660278,
        "wikidata": "Q10549302",
        "label": "Kristvalla kyrka"
    }
    
    ,{
        "lat": 56.69333333,
        "lon": 16.00666667,
        "wikidata": "Q10661491",
        "label": "Sankt Sigfrids kyrka"
    }
    
    ,{
        "lat": 57.67275,
        "lon": 12.55608333,
        "wikidata": "Q10432578",
        "label": "Bollebygds kyrka"
    }
    
    ,{
        "lat": 57.0847,
        "lon": 13.9606,
        "wikidata": "Q10532084",
        "label": "Hångers kyrka"
    }
    
    ,{
        "lat": 57.02635278,
        "lon": 13.09325833,
        "wikidata": "Q10545647",
        "label": "Kinnareds kyrka"
    }
    
    ,{
        "lat": 57.33974722,
        "lon": 14.19034444,
        "wikidata": "Q10516025",
        "label": "Hagshults kyrka"
    }
    
    ,{
        "lat": 58.072,
        "lon": 13.9164,
        "wikidata": "Q10531647",
        "label": "Härja kyrka"
    }
    
    ,{
        "lat": 55.792972222,
        "lon": 13.201527777,
        "wikidata": "Q10561721",
        "label": "Lilla Harrie kyrka"
    }
    
    ,{
        "lat": 56.04555278,
        "lon": 12.74676944,
        "wikidata": "Q10401444",
        "label": "Adolfsbergskyrkan"
    }
    
    ,{
        "lat": 63.81488889,
        "lon": 16.39916667,
        "wikidata": "Q10496063",
        "label": "Fjällsjö kyrka"
    }
    
    ,{
        "lat": 58.45444444,
        "lon": 15.92388889,
        "wikidata": "Q10505093",
        "label": "Gistads kyrka"
    }
    
    ,{
        "lat": 59.19608611,
        "lon": 15.10369167,
        "wikidata": "Q10549922",
        "label": "Kullkyrkan"
    }
    
    ,{
        "lat": 56.70008056,
        "lon": 15.75273611,
        "wikidata": "Q10727676",
        "label": "Örsjö kyrka"
    }
    
    ,{
        "lat": 58.49209167,
        "lon": 11.61801944,
        "wikidata": "Q10531971",
        "label": "Håby kyrka"
    }
    
    ,{
        "lat": 59.29,
        "lon": 17.931666666,
        "wikidata": "Q10631914",
        "label": "Pingstkyrkan"
    }
    
    ,{
        "lat": 59.44749167,
        "lon": 15.95710278,
        "wikidata": "Q10430777",
        "label": "Björskogs kyrka"
    }
    
    ,{
        "lat": 59.01937,
        "lon": 15.37875,
        "wikidata": "Q10684758",
        "label": "Svennevads kyrka"
    }
    
    ,{
        "lat": 60.172388888,
        "lon": 18.194861111,
        "wikidata": "Q10670879",
        "label": "Skäfthammars kyrka"
    }
    
    ,{
        "lat": 57.38633889,
        "lon": 15.79565833,
        "wikidata": "Q10593313",
        "label": "Målilla-Gårdveda kyrka"
    }
    
    ,{
        "lat": 58.896806,
        "lon": 15.437417,
        "wikidata": "Q31899783",
        "label": "Adventskyrkan, Hjortkvarn"
    }
    
    ,{
        "lat": 59.27977778,
        "lon": 12.67319444,
        "wikidata": "Q10572645",
        "label": "Långseruds kyrka"
    }
    
    ,{
        "lat": 57.16472222,
        "lon": 16.02444444,
        "wikidata": "Q10532364",
        "label": "Högsby kyrka"
    }
    
    ,{
        "lat": 61.0072,
        "lon": 14.5414,
        "wikidata": "Q10588909",
        "label": "Mora kyrka"
    }
    
    ,{
        "lat": 56.67305556,
        "lon": 12.85583333,
        "wikidata": "Q10661434",
        "label": "Sankt Nikolai kyrka"
    }
    
    ,{
        "lat": 59.32137778,
        "lon": 15.22685,
        "wikidata": "Q10526729",
        "label": "Hovsta kyrka"
    }
    
    ,{
        "lat": 57.99425,
        "lon": 13.11533611,
        "wikidata": "Q10526711",
        "label": "Hovs kyrka"
    }
    
    ,{
        "lat": 56.05,
        "lon": 14.18333333,
        "wikidata": "Q3358333",
        "label": "Nosaby kyrka"
    }
    
    ,{
        "lat": 57.7875,
        "lon": 14.27361111,
        "wikidata": "Q10527413",
        "label": "Huskvarna kyrka"
    }
    
    ,{
        "lat": 57.31202778,
        "lon": 12.64033333,
        "wikidata": "Q10510869",
        "label": "Gunnarsjö kyrka"
    }
    
    ,{
        "lat": 57.69113889,
        "lon": 11.90958333,
        "wikidata": "Q10661517",
        "label": "Sankta Birgittas kapell"
    }
    
    ,{
        "lat": 59.946055555,
        "lon": 17.529583333,
        "wikidata": "Q10438469",
        "label": "Bälinge kyrka"
    }
    
    ,{
        "lat": 60.74947222,
        "lon": 17.45030556,
        "wikidata": "Q10572960",
        "label": "Lövgrunds kapell"
    }
    
    ,{
        "lat": 57.41318333,
        "lon": 12.02253056,
        "wikidata": "Q10610169",
        "label": "Onsala kyrka"
    }
    
    ,{
        "lat": 60.02694444,
        "lon": 17.5525,
        "wikidata": "Q10688224",
        "label": "Sätuna gravkor"
    }
    
    ,{
        "lat": 57.95876111,
        "lon": 13.52013611,
        "wikidata": "Q10527092",
        "label": "Humla kyrka"
    }
    
    ,{
        "lat": 58.90811667,
        "lon": 12.39617778,
        "wikidata": "Q10698686",
        "label": "Tisselskogs kyrka"
    }
    
    ,{
        "lat": 59.71706944,
        "lon": 17.14314444,
        "wikidata": "Q10572688",
        "label": "Långtora kyrka"
    }
    
    ,{
        "lat": 57.10131667,
        "lon": 13.682075,
        "wikidata": "Q10726791",
        "label": "Ås kyrka"
    }
    
    ,{
        "lat": 58.23020833,
        "lon": 14.65408333,
        "wikidata": "Q10727091",
        "label": "Ödeshögs kyrka"
    }
    
    ,{
        "lat": 58.21197222,
        "lon": 11.41855556,
        "wikidata": "Q10509161",
        "label": "Grundsunds kyrka"
    }
    
    ,{
        "lat": 58.39555556,
        "lon": 11.50041667,
        "wikidata": "Q10434845",
        "label": "Brastads kyrka"
    }
    
    ,{
        "lat": 65.58869444,
        "lon": 22.24241667,
        "wikidata": "Q10522780",
        "label": "Hertsö kyrka"
    }
    
    ,{
        "lat": 56.018333333,
        "lon": 14.325277777,
        "wikidata": "Q10604851",
        "label": "Nymö kyrka"
    }
    
    ,{
        "lat": 57.79611111,
        "lon": 14.31027778,
        "wikidata": "Q10516103",
        "label": "Hakarps kyrka"
    }
    
    ,{
        "lat": 59.77330556,
        "lon": 16.90073611,
        "wikidata": "Q10668173",
        "label": "Simtuna kyrka"
    }
    
    ,{
        "lat": 58.50916667,
        "lon": 15.33694444,
        "wikidata": "Q10546397",
        "label": "Klockrike kyrka"
    }
    
    ,{
        "lat": 66.05051111,
        "lon": 14.91611944,
        "wikidata": "Q10715344",
        "label": "Vila kapell"
    }
    
    ,{
        "lat": 55.78602778,
        "lon": 13.24480556,
        "wikidata": "Q10727710",
        "label": "Örtofta kyrka"
    }
    
    ,{
        "lat": 59.42346944,
        "lon": 16.89757222,
        "wikidata": "Q10497273",
        "label": "Fogdö kyrka"
    }
    
    ,{
        "lat": 62.10974722,
        "lon": 16.70889444,
        "wikidata": "Q10518428",
        "label": "Hassela kyrka"
    }
    
    ,{
        "lat": 57.15916667,
        "lon": 16.46444444,
        "wikidata": "Q10647919",
        "label": "Påskallaviks kyrka"
    }
    
    ,{
        "lat": 59.35270833,
        "lon": 18.27793056,
        "wikidata": "Q10550104",
        "label": "Kummelnäs kapell"
    }
    
    ,{
        "lat": 57.77543889,
        "lon": 13.67825833,
        "wikidata": "Q10682109",
        "label": "Strängsereds kyrka"
    }
    
    ,{
        "lat": 59.71722222,
        "lon": 12.47194444,
        "wikidata": "Q10604240",
        "label": "Ny kyrka"
    }
    
    ,{
        "lat": 60.52866667,
        "lon": 15.35313889,
        "wikidata": "Q10409325",
        "label": "Amsbergs kapell"
    }
    
    ,{
        "lat": 62.66111667,
        "lon": 17.19346667,
        "wikidata": "Q10553233",
        "label": "Lagfors kyrka"
    }
    
    ,{
        "lat": 56.088425,
        "lon": 15.69583611,
        "wikidata": "Q10682468",
        "label": "Sturkö kyrka"
    }
    
    ,{
        "lat": 57.16938889,
        "lon": 15.34619444,
        "wikidata": "Q10726886",
        "label": "Åseda kyrka"
    }
    
    ,{
        "lat": 59.605,
        "lon": 13.5003,
        "wikidata": "Q18292520",
        "label": "Nedre Ulleruds kyrka"
    }
    
    ,{
        "lat": 57.68101111,
        "lon": 11.92727222,
        "wikidata": "Q10550339",
        "label": "Kungsladugårds kyrka"
    }
    
    ,{
        "lat": 57.47932778,
        "lon": 12.00231667,
        "wikidata": "Q10712323",
        "label": "Vallda kyrka"
    }
    
    ,{
        "lat": 57.69058,
        "lon": 18.42306,
        "wikidata": "Q1742972",
        "label": "Väskinde kyrka"
    }
    
    ,{
        "lat": 64.817666666,
        "lon": 14.239,
        "wikidata": "Q10412227",
        "label": "Ankarede kapell"
    }
    
    ,{
        "lat": 55.86972222,
        "lon": 13.1175,
        "wikidata": "Q10602567",
        "label": "Norra Skrävlinge kyrka"
    }
    
    ,{
        "lat": 60.010194444,
        "lon": 17.966527777,
        "wikidata": "Q10677902",
        "label": "Stavby kyrka"
    }
    
    ,{
        "lat": 59.20166667,
        "lon": 17.76861111,
        "wikidata": "Q10687884",
        "label": "Säby kyrka"
    }
    
    ,{
        "lat": 55.39083333,
        "lon": 13.28666667,
        "wikidata": "Q10668031",
        "label": "Simlinge kyrka"
    }
    
    ,{
        "lat": 57.83611111,
        "lon": 14.82027778,
        "wikidata": "Q10411542",
        "label": "Aneby kyrka"
    }
    
    ,{
        "lat": 56.40694444,
        "lon": 16.4325,
        "wikidata": "Q10671932",
        "label": "Smedby kyrka"
    }
    
    ,{
        "lat": 58.26766667,
        "lon": 11.84540556,
        "wikidata": "Q10726239",
        "label": "Åh kyrka"
    }
    
    ,{
        "lat": 58.1891,
        "lon": 15.0541,
        "wikidata": "Q10434051",
        "label": "Boxholms kyrka"
    }
    
    ,{
        "lat": 63.24595278,
        "lon": 14.41325278,
        "wikidata": "Q10658965",
        "label": "Rödöns kyrka"
    }
    
    ,{
        "lat": 59.66585,
        "lon": 17.85053333,
        "wikidata": "Q10606808",
        "label": "Odensala kyrka"
    }
    
    ,{
        "lat": 55.41972222,
        "lon": 12.84972222,
        "wikidata": "Q10669749",
        "label": "Skanörs kyrka"
    }
    
    ,{
        "lat": 55.96581944,
        "lon": 12.77425,
        "wikidata": "Q10658214",
        "label": "Rydebäcks kyrka"
    }
    
    ,{
        "lat": 65.10333333,
        "lon": 21.04166667,
        "wikidata": "Q10495557",
        "label": "Finnträsks kyrka"
    }
    
    ,{
        "lat": 57.355609,
        "lon": 14.681103,
        "wikidata": "Q1742889",
        "label": "Hjärtlanda kyrka"
    }
    
    ,{
        "lat": 56.309125,
        "lon": 15.46572222,
        "wikidata": "Q10706782",
        "label": "Tvings kyrka"
    }
    
    ,{
        "lat": 55.63511111,
        "lon": 13.07818889,
        "wikidata": "Q10418083",
        "label": "Arlövs kyrka"
    }
    
    ,{
        "lat": 63.29102778,
        "lon": 18.29480556,
        "wikidata": "Q10667385",
        "label": "Sidensjö kyrka"
    }
    
    ,{
        "lat": 58.063,
        "lon": 12.9521,
        "wikidata": "Q10650859",
        "label": "Remmene kyrka"
    }
    
    ,{
        "lat": 59.5566,
        "lon": 12.5617,
        "wikidata": "Q10505326",
        "label": "Glava kyrka"
    }
    
    ,{
        "lat": 59.14352,
        "lon": 17.78677,
        "wikidata": "Q10509947",
        "label": "Grödinge kyrka"
    }
    
    ,{
        "lat": 56.52261111,
        "lon": 14.98025,
        "wikidata": "Q10688770",
        "label": "Söderportkyrkan"
    }
    
    ,{
        "lat": 64.6307,
        "lon": 20.8389,
        "wikidata": "Q10648587",
        "label": "Ragvaldsträsk bönhus"
    }
    
    ,{
        "lat": 58.292378,
        "lon": 11.575953,
        "wikidata": "Q4938750",
        "label": "Bokenäs gamla kyrka"
    }
    
    ,{
        "lat": 59.692277777,
        "lon": 17.468444444,
        "wikidata": "Q10549881",
        "label": "Kulla kyrka"
    }
    
    ,{
        "lat": 55.94333333,
        "lon": 12.91861111,
        "wikidata": "Q10613417",
        "label": "Ottarps kyrka"
    }
    
    ,{
        "lat": 57.79120556,
        "lon": 11.99195833,
        "wikidata": "Q10551885",
        "label": "Kärra kyrka"
    }
    
    ,{
        "lat": 58.93870278,
        "lon": 15.88280278,
        "wikidata": "Q10669920",
        "label": "Skedevi kyrka"
    }
    
    ,{
        "lat": 59.29102778,
        "lon": 16.07958333,
        "wikidata": "Q10717991",
        "label": "Västermo kyrka"
    }
    
    ,{
        "lat": 57.52844444,
        "lon": 18.44194444,
        "wikidata": "Q1742938",
        "label": "Roma kyrka"
    }
    
    ,{
        "lat": 55.90141667,
        "lon": 14.07288889,
        "wikidata": "Q10492819",
        "label": "Everöds kyrka"
    }
    
    ,{
        "lat": 57.12138889,
        "lon": 16.96611111,
        "wikidata": "Q10551600",
        "label": "Källa nya kyrka"
    }
    
    ,{
        "lat": 57.0275,
        "lon": 12.54222222,
        "wikidata": "Q10667213",
        "label": "Sibbarps kyrka"
    }
    
    ,{
        "lat": 57.9956,
        "lon": 13.2946,
        "wikidata": "Q10435947",
        "label": "Broddarps kyrka"
    }
    
    ,{
        "lat": 56.70015278,
        "lon": 12.86577222,
        "wikidata": "Q10551823",
        "label": "Kärlekens kyrka"
    }
    
    ,{
        "lat": 55.51222222,
        "lon": 13.22555556,
        "wikidata": "Q10684628",
        "label": "Svedala kyrka"
    }
    
    ,{
        "lat": 64.34796389,
        "lon": 20.50668889,
        "wikidata": "Q10438168",
        "label": "Bygdsiljums kyrka"
    }
    
    ,{
        "lat": 58.14177778,
        "lon": 12.83211111,
        "wikidata": "Q10426498",
        "label": "Barne-Åsaka kyrka"
    }
    
    ,{
        "lat": 56.95508333,
        "lon": 13.53136111,
        "wikidata": "Q10689024",
        "label": "Södra Unnaryds kyrka"
    }
    
    ,{
        "lat": 60.73111111,
        "lon": 14.98238889,
        "wikidata": "Q10556732",
        "label": "Leksands kyrka"
    }
    
    ,{
        "lat": 56.282,
        "lon": 12.50478333,
        "wikidata": "Q10593503",
        "label": "Mölle kapell"
    }
    
    ,{
        "lat": 59.50831111,
        "lon": 15.91170556,
        "wikidata": "Q10435869",
        "label": "Bro kyrka"
    }
    
    ,{
        "lat": 59.93213889,
        "lon": 16.61744444,
        "wikidata": "Q10660325",
        "label": "Sala sockenkyrka"
    }
    
    ,{
        "lat": 58.18155833,
        "lon": 12.11018333,
        "wikidata": "Q10524968",
        "label": "Hjärtums kyrka"
    }
    
    ,{
        "lat": 57.81899167,
        "lon": 14.4461,
        "wikidata": "Q10684546",
        "label": "Svarttorps kyrka"
    }
    
    ,{
        "lat": 61.72625,
        "lon": 17.10444444,
        "wikidata": "Q10526863",
        "label": "Hudiksvalls kyrka"
    }
    
    ,{
        "lat": 67.42720833,
        "lon": 22.50530833,
        "wikidata": "Q10541461",
        "label": "Junosuando kyrka"
    }
    
    ,{
        "lat": 59.42488333,
        "lon": 16.09755,
        "wikidata": "Q10550141",
        "label": "Kung Karls kyrka"
    }
    
    ,{
        "lat": 56.63243611,
        "lon": 16.16896389,
        "wikidata": "Q10568325",
        "label": "Ljungby kyrka"
    }
    
    ,{
        "lat": 58.33402778,
        "lon": 12.26763889,
        "wikidata": "Q10713343",
        "label": "Vassända-Naglums kyrka"
    }
    
    ,{
        "lat": 56.70763889,
        "lon": 16.28733333,
        "wikidata": "Q10546505",
        "label": "Kläckeberga kyrka"
    }
    
    ,{
        "lat": 58.669444444,
        "lon": 17.1075,
        "wikidata": "Q29479418",
        "label": "Sjömanskyrkan"
    }
    
    ,{
        "lat": 59.22141667,
        "lon": 18.20394444,
        "wikidata": "Q10704861",
        "label": "Trollbäckens kyrka"
    }
    
    ,{
        "lat": 61.17152778,
        "lon": 16.81638889,
        "wikidata": "Q10670318",
        "label": "Skogs kyrkoruin"
    }
    
    ,{
        "lat": 58.64484444,
        "lon": 16.62615556,
        "wikidata": "Q10550947",
        "label": "Kvarsebo kyrka"
    }
    
    ,{
        "lat": 63.53850556,
        "lon": 19.44118611,
        "wikidata": "Q10657789",
        "label": "Rundviks kyrka"
    }
    
    ,{
        "lat": 59.31638889,
        "lon": 18.07319444,
        "wikidata": "Q10411471",
        "label": "Andreaskyrkan"
    }
    
    ,{
        "lat": 56.051861111,
        "lon": 12.978805555,
        "wikidata": "Q10429632",
        "label": "Billesholms kyrka"
    }
    
    ,{
        "lat": 55.790444444,
        "lon": 13.106055555,
        "wikidata": "Q10502463",
        "label": "Gamla kyrkan i Kävlinge"
    }
    
    ,{
        "lat": 57.8475,
        "lon": 12.478611111,
        "wikidata": "Q10521841",
        "label": "Hemsjö kyrka"
    }
    
    ,{
        "lat": 57.10027778,
        "lon": 13.59777778,
        "wikidata": "Q10552019",
        "label": "Kållerstads kyrka"
    }
    
    ,{
        "lat": 57.5046,
        "lon": 14.6966,
        "wikidata": "Q10431946",
        "label": "Bodafors kyrka"
    }
    
    ,{
        "lat": 59.1527,
        "lon": 15.1061,
        "wikidata": "Q10661338",
        "label": "Sankt Eriks kapell"
    }
    
    ,{
        "lat": 60.20138889,
        "lon": 16.47777778,
        "wikidata": "Q10438116",
        "label": "By kyrka"
    }
    
    ,{
        "lat": 60.71169444,
        "lon": 16.60230556,
        "wikidata": "Q10541746",
        "label": "Järbo kyrka"
    }
    
    ,{
        "lat": 59.333333333,
        "lon": 18.093333333,
        "wikidata": "Q10612978",
        "label": "Oscarskyrkan"
    }
    
    ,{
        "lat": 58.310330555,
        "lon": 14.911388888,
        "wikidata": "Q26256798",
        "label": "Harstads kyrka"
    }
    
    ,{
        "lat": 57.02514722,
        "lon": 14.71836667,
        "wikidata": "Q10611663",
        "label": "Ormesberga kyrka"
    }
    
    ,{
        "lat": 55.505,
        "lon": 13.35888889,
        "wikidata": "Q10438744",
        "label": "Börringe kyrka"
    }
    
    ,{
        "lat": 58.84594444,
        "lon": 11.787,
        "wikidata": "Q10708156",
        "label": "Töftedals kyrka"
    }
    
    ,{
        "lat": 57.16010556,
        "lon": 12.3117,
        "wikidata": "Q10562463",
        "label": "Lindbergs kyrka"
    }
    
    ,{
        "lat": 55.935277777,
        "lon": 14.071388888,
        "wikidata": "Q10571567",
        "label": "Lyngsjö kyrka"
    }
    
    ,{
        "lat": 55.45111111,
        "lon": 13.575,
        "wikidata": "Q10673104",
        "label": "Solberga kyrka"
    }
    
    ,{
        "lat": 57.511904,
        "lon": 15.505722,
        "wikidata": "Q10543953",
        "label": "Karlstorps kyrka"
    }
    
    ,{
        "lat": 57.09541667,
        "lon": 12.82633333,
        "wikidata": "Q10512288",
        "label": "Gällareds kyrka"
    }
    
    ,{
        "lat": 58.4542,
        "lon": 13.5683,
        "wikidata": "Q10727236",
        "label": "Ölanda kapell"
    }
    
    ,{
        "lat": 57.77616111,
        "lon": 14.56098056,
        "wikidata": "Q10541965",
        "label": "Järsnäs kyrka"
    }
    
    ,{
        "lat": 55.48638889,
        "lon": 13.71333333,
        "wikidata": "Q10671191",
        "label": "Skårby kyrka"
    }
    
    ,{
        "lat": 59.65829444,
        "lon": 17.54718889,
        "wikidata": "Q10531278",
        "label": "Häggeby kyrka"
    }
    
    ,{
        "lat": 58.50804167,
        "lon": 13.32991667,
        "wikidata": "Q10551622",
        "label": "Källby kyrka"
    }
    
    ,{
        "lat": 60.068611,
        "lon": 13.864722,
        "wikidata": "Q10511118",
        "label": "Gustav Adolfs kyrka"
    }
    
    ,{
        "lat": 58.069,
        "lon": 13.3546,
        "wikidata": "Q10508955",
        "label": "Grolanda kyrka"
    }
    
    ,{
        "lat": 57.17169444,
        "lon": 12.38227778,
        "wikidata": "Q10712253",
        "label": "Valinge kyrka"
    }
    
    ,{
        "lat": 56.55080032,
        "lon": 13.73480034,
        "wikidata": "Q10661320",
        "label": "Sankt Andreas kyrka"
    }
    
    ,{
        "lat": 58.03496,
        "lon": 14.34331,
        "wikidata": "Q10434636",
        "label": "Brahekyrkan"
    }
    
    ,{
        "lat": 58.11080556,
        "lon": 11.36366667,
        "wikidata": "Q10551764",
        "label": "Käringöns kyrka"
    }
    
    ,{
        "lat": 58.5898,
        "lon": 16.1898,
        "wikidata": "Q18245617",
        "label": "Sankta Birgitta katolska församling"
    }
    
    ,{
        "lat": 64.60527778,
        "lon": 18.66611111,
        "wikidata": "Q10577024",
        "label": "Margaretakyrkan"
    }
    
    ,{
        "lat": 59.857475,
        "lon": 17.64370556,
        "wikidata": "Q10426217",
        "label": "Baptistkyrkan"
    }
    
    ,{
        "lat": 59.76229722,
        "lon": 12.36129167,
        "wikidata": "Q10726514",
        "label": "Åmotfors kyrka"
    }
    
    ,{
        "lat": 59.338055555,
        "lon": 18.042222222,
        "wikidata": "Q10659763",
        "label": "Sabbatsbergs kyrka"
    }
    
    ,{
        "lat": 59.33077778,
        "lon": 17.56105556,
        "wikidata": "Q10412954",
        "label": "Ansgarskapellet"
    }
    
    ,{
        "lat": 59.345,
        "lon": 18.048611111,
        "wikidata": "Q10602914",
        "label": "Norrmalmskyrkan"
    }
    
    ,{
        "lat": 57.73131667,
        "lon": 11.919325,
        "wikidata": "Q10699340",
        "label": "Toleredskyrkan"
    }
    
    ,{
        "lat": 58.31315556,
        "lon": 14.92569722,
        "wikidata": "Q10717126",
        "label": "Väderstads kyrka"
    }
    
    ,{
        "lat": 67.34285,
        "lon": 17.21646667,
        "wikidata": "Q10405378",
        "label": "Alkavare kapell"
    }
    
    ,{
        "lat": 56.62525,
        "lon": 14.34027778,
        "wikidata": "Q10715943",
        "label": "Virestads kyrka"
    }
    
    ,{
        "lat": 58.38083333,
        "lon": 15.67861111,
        "wikidata": "Q10661358",
        "label": "Sankt Hans kyrka"
    }
    
    ,{
        "lat": 59.35927778,
        "lon": 17.97119444,
        "wikidata": "Q10404422",
        "label": "Alby kyrka"
    }
    
    ,{
        "lat": 55.47888889,
        "lon": 13.59777778,
        "wikidata": "Q10715566",
        "label": "Villie kyrka"
    }
    
    ,{
        "lat": 59.89196667,
        "lon": 12.17773333,
        "wikidata": "Q10559604",
        "label": "Lersjöns kapell"
    }
    
    ,{
        "lat": 56.66738333,
        "lon": 12.88093333,
        "wikidata": "Q10577842",
        "label": "Martin Luthers kyrka"
    }
    
    ,{
        "lat": 58.98827222,
        "lon": 16.22686389,
        "wikidata": "Q10661144",
        "label": "Sandbäckskyrkan"
    }
    
    ,{
        "lat": 59.67441667,
        "lon": 16.60944444,
        "wikidata": "Q10526811",
        "label": "Hubbo kyrka"
    }
    
    ,{
        "lat": 57.62509722,
        "lon": 11.89875278,
        "wikidata": "Q10605333",
        "label": "Näsets kyrka"
    }
    
    ,{
        "lat": 57.68486111,
        "lon": 11.97372222,
        "wikidata": "Q18287137",
        "label": "Barackkyrkan"
    }
    
    ,{
        "lat": 59.00889722,
        "lon": 17.81375278,
        "wikidata": "Q10674047",
        "label": "Sorunda kyrka"
    }
    
    ,{
        "lat": 55.93111111,
        "lon": 13.55,
        "wikidata": "Q10532691",
        "label": "Höörs kyrka"
    }
    
    ,{
        "lat": 55.9792,
        "lon": 13.79923333,
        "wikidata": "Q10726092",
        "label": "Äsphults kyrka"
    }
    
    ,{
        "lat": 55.385,
        "lon": 13.18611111,
        "wikidata": "Q10551511",
        "label": "Kyrkoköpinge kyrka"
    }
    
    ,{
        "lat": 57.61646944,
        "lon": 11.78338333,
        "wikidata": "Q10682820",
        "label": "Styrsö kyrka"
    }
    
    ,{
        "lat": 59.95551944,
        "lon": 17.60595,
        "wikidata": "Q10726030",
        "label": "Ärentuna kyrka"
    }
    
    ,{
        "lat": 59.05272222,
        "lon": 14.2665,
        "wikidata": "Q10657629",
        "label": "Rudskoga kyrka"
    }
    
    ,{
        "lat": 59.325555555,
        "lon": 18.072222222,
        "wikidata": "Q4357115",
        "label": "Finska kyrkan"
    }
    
    ,{
        "lat": 59.76719444,
        "lon": 15.29766667,
        "wikidata": "Q10649160",
        "label": "Ramsbergs kyrka"
    }
    
    ,{
        "lat": 59.334583333,
        "lon": 17.953333333,
        "wikidata": "Q10398038",
        "label": "Abrahamsbergskyrkan"
    }
    
    ,{
        "lat": 57.49976667,
        "lon": 14.1395,
        "wikidata": "Q5785539",
        "label": "Vaggeryds kyrka"
    }
    
    ,{
        "lat": 56.19941667,
        "lon": 12.55875,
        "wikidata": "Q10532204",
        "label": "Höganäs kyrka"
    }
    
    ,{
        "lat": 58.46736389,
        "lon": 11.66086389,
        "wikidata": "Q10498259",
        "label": "Foss kyrka"
    }
    
    ,{
        "lat": 59.59666667,
        "lon": 16.16111111,
        "wikidata": "Q10428473",
        "label": "Bergs kyrka"
    }
    
    ,{
        "lat": 62.37944444,
        "lon": 17.34833333,
        "wikidata": "Q10671278",
        "label": "Skönsmons gravkapell"
    }
    
    ,{
        "lat": 55.56111111,
        "lon": 14.28638889,
        "wikidata": "Q10505217",
        "label": "Gladsax kyrka"
    }
    
    ,{
        "lat": 60.17869444,
        "lon": 17.178,
        "wikidata": "Q10728158",
        "label": "Östervåla kyrka"
    }
    
    ,{
        "lat": 57.75148889,
        "lon": 12.034525,
        "wikidata": "Q10548254",
        "label": "Kortedalakyrkan"
    }
    
    ,{
        "lat": 58.26380556,
        "lon": 12.29602778,
        "wikidata": "Q10560786",
        "label": "Lextorpskyrkan"
    }
    
    ,{
        "lat": 58.61377778,
        "lon": 13.72025,
        "wikidata": "Q10570583",
        "label": "Lugnås kyrka"
    }
    
    ,{
        "lat": 57.710556,
        "lon": 11.777222,
        "wikidata": "Q19977463",
        "label": "Amhults kyrka"
    }
    
    ,{
        "lat": 61.04333333,
        "lon": 15.79244444,
        "wikidata": "Q10684290",
        "label": "Svabensverks kyrka"
    }
    
    ,{
        "lat": 61.59136111,
        "lon": 15.56641667,
        "wikidata": "Q10727213",
        "label": "Öjungs kapell"
    }
    
    ,{
        "lat": 57.24449,
        "lon": 17.05967,
        "wikidata": "Q10438669",
        "label": "Böda kyrka"
    }
    
    ,{
        "lat": 66.38595,
        "lon": 21.61153889,
        "wikidata": "Q10647892",
        "label": "Pålkems kyrka"
    }
    
    ,{
        "lat": 62.8995,
        "lon": 15.12536111,
        "wikidata": "Q10651578",
        "label": "Revsunds kyrka"
    }
    
    ,{
        "lat": 55.47027778,
        "lon": 13.80138889,
        "wikidata": "Q10436026",
        "label": "Bromma kyrka"
    }
    
    ,{
        "lat": 61.98130278,
        "lon": 17.06515833,
        "wikidata": "Q10428518",
        "label": "Bergsjö kyrka"
    }
    
    ,{
        "lat": 58.67506389,
        "lon": 15.84392778,
        "wikidata": "Q10655758",
        "label": "Risinge gamla kyrka"
    }
    
    ,{
        "lat": 58.34431944,
        "lon": 16.70444444,
        "wikidata": "Q10661322",
        "label": "Sankt Anna kyrka"
    }
    
    ,{
        "lat": 67.13232222,
        "lon": 20.659425,
        "wikidata": "Q10512312",
        "label": "Gällivare kyrka"
    }
    
    ,{
        "lat": 59.11281111,
        "lon": 12.93818056,
        "wikidata": "Q10438117",
        "label": "By kyrka"
    }
    
    ,{
        "lat": 55.59083333,
        "lon": 13.20138889,
        "wikidata": "Q10426240",
        "label": "Bara kyrka"
    }
    
    ,{
        "lat": 56.45811111,
        "lon": 13.58977778,
        "wikidata": "Q10504464",
        "label": "Germunds kapell"
    }
    
    ,{
        "lat": 59.69666667,
        "lon": 18.38888889,
        "wikidata": "Q10658793",
        "label": "Rö kyrka"
    }
    
    ,{
        "lat": 58.34816667,
        "lon": 11.33638889,
        "wikidata": "Q10576180",
        "label": "Malmöns kyrka"
    }
    
    ,{
        "lat": 55.839944444,
        "lon": 12.960916666,
        "wikidata": "Q10662268",
        "label": "Saxtorps kyrka"
    }
    
    ,{
        "lat": 58.1344,
        "lon": 12.4584,
        "wikidata": "Q10553266",
        "label": "Lagmansereds kyrkoruin"
    }
    
    ,{
        "lat": 55.9918,
        "lon": 14.08716389,
        "wikidata": "Q18334810",
        "label": "Vä kyrka"
    }
    
    ,{
        "lat": 55.78777778,
        "lon": 13.83805556,
        "wikidata": "Q10572527",
        "label": "Långaröds kyrka"
    }
    
    ,{
        "lat": 55.76166667,
        "lon": 13.07138889,
        "wikidata": "Q10682892",
        "label": "Stävie kyrka"
    }
    
    ,{
        "lat": 56.96305556,
        "lon": 13.15194444,
        "wikidata": "Q10658228",
        "label": "Rydöbruks kapell"
    }
    
    ,{
        "lat": 56.39795,
        "lon": 14.32388889,
        "wikidata": "Q10727589",
        "label": "Örkeneds kyrka"
    }
    
    ,{
        "lat": 67.36672222,
        "lon": 23.32102778,
        "wikidata": "Q10544480",
        "label": "Kaunisvaara kyrka"
    }
    
    ,{
        "lat": 60.085,
        "lon": 18.22361111,
        "wikidata": "Q10480532",
        "label": "Ekeby kyrka"
    }
    
    ,{
        "lat": 58.70333333,
        "lon": 11.55725,
        "wikidata": "Q10587114",
        "label": "Mo kyrka"
    }
    
    ,{
        "lat": 58.35110278,
        "lon": 14.0509,
        "wikidata": "Q10717741",
        "label": "Värsås kyrka"
    }
    
    ,{
        "lat": 56.82511111,
        "lon": 12.885,
        "wikidata": "Q10671837",
        "label": "Slättåkra kyrka"
    }
    
    ,{
        "lat": 56.00538889,
        "lon": 12.81508333,
        "wikidata": "Q10438616",
        "label": "Bårslövs kyrka"
    }
    
    ,{
        "lat": 59.32373889,
        "lon": 18.07385833,
        "wikidata": "Q10659400",
        "label": "S:t Johanneskyrkan"
    }
    
    ,{
        "lat": 58.53958333,
        "lon": 15.97361111,
        "wikidata": "Q10545486",
        "label": "Kimstads kyrka"
    }
    
    ,{
        "lat": 59.939,
        "lon": 16.85669444,
        "wikidata": "Q10717982",
        "label": "Västerlövsta kyrka"
    }
    
    ,{
        "lat": 59.44844444,
        "lon": 18.19622222,
        "wikidata": "Q10728386",
        "label": "Östra Ryds kyrka"
    }
    
    ,{
        "lat": 60.38501389,
        "lon": 17.23219444,
        "wikidata": "Q10688517",
        "label": "Söderfors kyrka"
    }
    
    ,{
        "lat": 60.07163889,
        "lon": 15.92683333,
        "wikidata": "Q10601937",
        "label": "Norbergs gravkapell"
    }
    
    ,{
        "lat": 60.81038056,
        "lon": 13.86015,
        "wikidata": "Q10727190",
        "label": "Öje kapell"
    }
    
    ,{
        "lat": 61.13425,
        "lon": 12.81144444,
        "wikidata": "Q10659087",
        "label": "Rörbäcksnäs kyrka"
    }
    
    ,{
        "lat": 58.19738889,
        "lon": 13.579175,
        "wikidata": "Q10499114",
        "label": "Friggeråkers kyrka"
    }
    
    ,{
        "lat": 57.64368889,
        "lon": 18.29875,
        "wikidata": "Q10659441",
        "label": "S:ta Gertruds kyrkoruin, Visby"
    }
    
    ,{
        "lat": 57.50744,
        "lon": 18.4214,
        "wikidata": "Q383294",
        "label": "Björke kyrka"
    }
    
    ,{
        "lat": 58.3757,
        "lon": 12.2927,
        "wikidata": "Q10431764",
        "label": "Blåsutkyrkan"
    }
    
    ,{
        "lat": 56.225444444,
        "lon": 15.117555555,
        "wikidata": "Q995525",
        "label": "Bräkne-Hoby kyrka"
    }
    
    ,{
        "lat": 57.89602778,
        "lon": 16.39877778,
        "wikidata": "Q18239105",
        "label": "Gamleby kyrka"
    }
    
    ,{
        "lat": 58.93731667,
        "lon": 11.27981667,
        "wikidata": "Q10669933",
        "label": "Skee kyrka"
    }
    
    ,{
        "lat": 57.69161389,
        "lon": 12.30838333,
        "wikidata": "Q10531757",
        "label": "Härryda kyrka"
    }
    
    ,{
        "lat": 58.64670833,
        "lon": 12.05708333,
        "wikidata": "Q10532431",
        "label": "Högsäters kyrka"
    }
    
    ,{
        "lat": 59.49886667,
        "lon": 17.17883333,
        "wikidata": "Q10418324",
        "label": "Arnö kyrka"
    }
    
    ,{
        "lat": 59.19558,
        "lon": 14.89933,
        "wikidata": "Q2608068",
        "label": "Knista kyrka"
    }
    
    ,{
        "lat": 66.21493333,
        "lon": 23.70938333,
        "wikidata": "Q10523909",
        "label": "Hietaniemi kyrka"
    }
    
    ,{
        "lat": 63.69223056,
        "lon": 16.90065,
        "wikidata": "Q10541465",
        "label": "Junsele kyrka"
    }
    
    ,{
        "lat": 56.45855556,
        "lon": 16.42938889,
        "wikidata": "Q10544255",
        "label": "Kastlösa kyrka"
    }
    
    ,{
        "lat": 59.18333333,
        "lon": 12.21,
        "wikidata": "Q10718939",
        "label": "Vårviks kyrka"
    }
    
    ,{
        "lat": 57.44908333,
        "lon": 18.36402778,
        "wikidata": "Q1394756",
        "label": "Väte kyrka"
    }
    
    ,{
        "lat": 59.86402778,
        "lon": 19.03399444,
        "wikidata": "Q10430646",
        "label": "Björkö-Arholma kyrka"
    }
    
    ,{
        "lat": 57.0829,
        "lon": 14.9904,
        "wikidata": "Q10476812",
        "label": "Drev-Hornaryds kyrka"
    }
    
    ,{
        "lat": 60.1876,
        "lon": 12.6721,
        "wikidata": "Q10556756",
        "label": "Lekvattnets kyrka"
    }
    
    ,{
        "lat": 57.259,
        "lon": 12.99463889,
        "wikidata": "Q10593427",
        "label": "Mårdaklevs kyrka"
    }
    
    ,{
        "lat": 56.15838889,
        "lon": 13.62486111,
        "wikidata": "Q10706803",
        "label": "Tvärskogs kapell"
    }
    
    ,{
        "lat": 59.31646944,
        "lon": 18.0913,
        "wikidata": "Q10488445",
        "label": "Ersta kyrka"
    }
    
    ,{
        "lat": 57.03555556,
        "lon": 18.30027778,
        "wikidata": "Q1396767",
        "label": "Öja kyrka"
    }
    
    ,{
        "lat": 55.74698889,
        "lon": 13.40073333,
        "wikidata": "Q10525278",
        "label": "Holmby kyrka"
    }
    
    ,{
        "lat": 56.83405556,
        "lon": 15.39811111,
        "wikidata": "Q10480498",
        "label": "Ekeberga kyrka"
    }
    
    ,{
        "lat": 59.25747222,
        "lon": 15.24469444,
        "wikidata": "Q10406534",
        "label": "Almby kyrka"
    }
    
    ,{
        "lat": 59.82014722,
        "lon": 17.70223056,
        "wikidata": "Q10688263",
        "label": "Sävja kyrka"
    }
    
    ,{
        "lat": 59.41975,
        "lon": 13.73145833,
        "wikidata": "Q10728277",
        "label": "Östra Fågelviks kyrka"
    }
    
    ,{
        "lat": 55.4719,
        "lon": 14.2206,
        "wikidata": "Q10728313",
        "label": "Östra Hoby kyrka"
    }
    
    ,{
        "lat": 56.16704167,
        "lon": 12.88752778,
        "wikidata": "Q10423373",
        "label": "Ausås kyrka"
    }
    
    ,{
        "lat": 57.580581,
        "lon": 18.248183,
        "wikidata": "Q1742974",
        "label": "Västerhejde kyrka"
    }
    
    ,{
        "lat": 59.25256667,
        "lon": 18.20759722,
        "wikidata": "Q10681308",
        "label": "Storkällans kapell"
    }
    
    ,{
        "lat": 55.35608333,
        "lon": 13.31391667,
        "wikidata": "Q10561731",
        "label": "Lilla Isie kyrka"
    }
    
    ,{
        "lat": 59.003917,
        "lon": 14.204011,
        "wikidata": "Q435812",
        "label": "Södra Råda gamla kyrka"
    }
    
    ,{
        "lat": 56.67358333,
        "lon": 12.87153333,
        "wikidata": "Q10608170",
        "label": "Olaus Petri kyrka"
    }
    
    ,{
        "lat": 56.42333333,
        "lon": 12.94805556,
        "wikidata": "Q10728335",
        "label": "Östra Karups kyrka"
    }
    
    ,{
        "lat": 57.30319444,
        "lon": 13.36805556,
        "wikidata": "Q10433433",
        "label": "Bosebo kyrka"
    }
    
    ,{
        "lat": 56.10783333,
        "lon": 14.63086111,
        "wikidata": "Q10502536",
        "label": "Gammalstorps kyrka"
    }
    
    ,{
        "lat": 58.36888889,
        "lon": 15.72444444,
        "wikidata": "Q10553810",
        "label": "Landeryds kyrka"
    }
    
    ,{
        "lat": 55.51527778,
        "lon": 13.08472222,
        "wikidata": "Q10418491",
        "label": "Arrie kyrka"
    }
    
    ,{
        "lat": 58.83527778,
        "lon": 16.87504167,
        "wikidata": "Q10438514",
        "label": "Bärbo kyrka"
    }
    
    ,{
        "lat": 59.01880556,
        "lon": 13.13391667,
        "wikidata": "Q10727311",
        "label": "Ölseruds kyrka"
    }
    
    ,{
        "lat": 56.819367,
        "lon": 16.840689,
        "wikidata": "Q1747797",
        "label": "Sankta Birgittas kapell"
    }
    
    ,{
        "lat": 58.20661389,
        "lon": 16.60131111,
        "wikidata": "Q7482230",
        "label": "Valdemarsviks kyrka"
    }
    
    ,{
        "lat": 55.47583333,
        "lon": 13.87333333,
        "wikidata": "Q10681012",
        "label": "Stora Herrestads kyrka"
    }
    
    ,{
        "lat": 59.196,
        "lon": 17.4414,
        "wikidata": "Q10706546",
        "label": "Turinge kyrka"
    }
    
    ,{
        "lat": 60.04111111,
        "lon": 18.68,
        "wikidata": "Q10531908",
        "label": "Häverö kyrka"
    }
    
    ,{
        "lat": 59.54055556,
        "lon": 17.52180556,
        "wikidata": "Q10542841",
        "label": "Kalmar kyrka"
    }
    
    ,{
        "lat": 58.44895556,
        "lon": 14.89275,
        "wikidata": "Q10659427",
        "label": "S:t Pers kyrka"
    }
    
    ,{
        "lat": 57.98210278,
        "lon": 11.82751389,
        "wikidata": "Q10542162",
        "label": "Jörlanda kyrka"
    }
    
    ,{
        "lat": 57.65015278,
        "lon": 11.899525,
        "wikidata": "Q10707229",
        "label": "Tynnereds kyrka"
    }
    
    ,{
        "lat": 55.80055556,
        "lon": 13.32277778,
        "wikidata": "Q10433241",
        "label": "Borlunda kyrka"
    }
    
    ,{
        "lat": 59.377,
        "lon": 17.2568,
        "wikidata": "Q10723861",
        "label": "Ytterselö kyrka"
    }
    
    ,{
        "lat": 58.40339444,
        "lon": 13.98174722,
        "wikidata": "Q10685782",
        "label": "Sventorps kyrka"
    }
    
    ,{
        "lat": 57.82844444,
        "lon": 12.29369444,
        "wikidata": "Q10681057",
        "label": "Stora Lundby kyrka"
    }
    
    ,{
        "lat": 57.65008611,
        "lon": 11.79635833,
        "wikidata": "Q10420096",
        "label": "Asperö kyrka"
    }
    
    ,{
        "lat": 59.63655,
        "lon": 17.07483333,
        "wikidata": "Q10483552",
        "label": "Enakyrkan"
    }
    
    ,{
        "lat": 59.35929167,
        "lon": 16.51810556,
        "wikidata": "Q10661319",
        "label": "Sankt Andreas kyrka"
    }
    
    ,{
        "lat": 55.72111111,
        "lon": 13.805,
        "wikidata": "Q10499630",
        "label": "Fränninge kyrka"
    }
    
    ,{
        "lat": 58.4775,
        "lon": 12.8233,
        "wikidata": "Q10708058",
        "label": "Tådene gamla kyrka"
    }
    
    ,{
        "lat": 58.85212222,
        "lon": 12.16128333,
        "wikidata": "Q10727116",
        "label": "Ödskölts kyrka"
    }
    
    ,{
        "lat": 56.67029167,
        "lon": 12.91358611,
        "wikidata": "Q10672798",
        "label": "Snöstorps kyrka"
    }
    
    ,{
        "lat": 58.64368056,
        "lon": 13.89386111,
        "wikidata": "Q10711434",
        "label": "Utby kyrka"
    }
    
    ,{
        "lat": 58.46966667,
        "lon": 13.47380556,
        "wikidata": "Q18291686",
        "label": "Ledsjö kyrka"
    }
    
    ,{
        "lat": 55.96419444,
        "lon": 13.24875,
        "wikidata": "Q10419844",
        "label": "Asks kyrka"
    }
    
    ,{
        "lat": 57.42106,
        "lon": 13.29557,
        "wikidata": "Q10407671",
        "label": "Ambjörnarps kyrka"
    }
    
    ,{
        "lat": 57.77508333,
        "lon": 18.89505556,
        "wikidata": "Q1742888",
        "label": "Hellvi kyrka"
    }
    
    ,{
        "lat": 57.41277778,
        "lon": 18.34591667,
        "wikidata": "Q1742886",
        "label": "Hejde kyrka"
    }
    
    ,{
        "lat": 57.72588889,
        "lon": 12.12683333,
        "wikidata": "Q10727202",
        "label": "Öjersjökyrkan"
    }
    
    ,{
        "lat": 56.10378611,
        "lon": 12.86906944,
        "wikidata": "Q10529127",
        "label": "Hyllinge småkyrka"
    }
    
    ,{
        "lat": 55.62138889,
        "lon": 13.85944444,
        "wikidata": "Q10712690",
        "label": "Vanstads kyrka"
    }
    
    ,{
        "lat": 56.3565,
        "lon": 16.42152778,
        "wikidata": "Q10688954",
        "label": "Södra Möckleby kyrka"
    }
    
    ,{
        "lat": 58.1118,
        "lon": 12.51995,
        "wikidata": "Q10488438",
        "label": "Erska kyrka"
    }
    
    ,{
        "lat": 63.57059722,
        "lon": 19.5,
        "wikidata": "Q8499896",
        "label": "Nordmalings kyrka"
    }
    
    ,{
        "lat": 55.4925,
        "lon": 14.0475,
        "wikidata": "Q10432583",
        "label": "Bollerups kyrka"
    }
    
    ,{
        "lat": 59.32666667,
        "lon": 18.38611111,
        "wikidata": "Q10511185",
        "label": "Gustavsbergs kyrka"
    }
    
    ,{
        "lat": 61.54361111,
        "lon": 16.99805556,
        "wikidata": "Q10485131",
        "label": "Enångers kyrka"
    }
    
    ,{
        "lat": 58.63664167,
        "lon": 14.08426111,
        "wikidata": "Q10500679",
        "label": "Fägre kyrka"
    }
    
    ,{
        "lat": 58.03201944,
        "lon": 11.86762778,
        "wikidata": "Q10674635",
        "label": "Spekeröds kyrka"
    }
    
    ,{
        "lat": 60.40602778,
        "lon": 13.27280556,
        "wikidata": "Q18292594",
        "label": "Norra Ny kyrka"
    }
    
    ,{
        "lat": 57.80555556,
        "lon": 14.99166667,
        "wikidata": "Q10419805",
        "label": "Askeryds kyrka"
    }
    
    ,{
        "lat": 58.49608056,
        "lon": 16.50228611,
        "wikidata": "Q10726146",
        "label": "Å kyrka"
    }
    
    ,{
        "lat": 56.04638889,
        "lon": 12.69638889,
        "wikidata": "Q2222024",
        "label": "Sankta Maria kyrka"
    }
    
    ,{
        "lat": 57.781667,
        "lon": 12.029583,
        "wikidata": "Q28016540",
        "label": "Mariakyrkan i Hammarkullen"
    }
    
    ,{
        "lat": 55.45805556,
        "lon": 14.17777778,
        "wikidata": "Q10661535",
        "label": "Sankta Maria kyrka"
    }
    
    ,{
        "lat": 61.36088889,
        "lon": 16.98575,
        "wikidata": "Q10602690",
        "label": "Norrala kyrka"
    }
    
    ,{
        "lat": 59.35444444,
        "lon": 17.92055556,
        "wikidata": "Q940143",
        "label": "Bromma kyrka"
    }
    
    ,{
        "lat": 59.32626389,
        "lon": 18.321425,
        "wikidata": "Q10508105",
        "label": "Graninge kyrka"
    }
